[
    {
      "profession_id": 7,
      "contract_type": "INTERNSHIP",
      "name": "[Louis Vuitton Germany] Praktikant (m/w) im Bereich Digital Retail (E-Commerce)",
      "latitude": 48.1392154,
      "longitude": 11.5781413
    },
    {
      "profession_id": 5,
      "contract_type": "INTERNSHIP",
      "name": "Bras droit de la fondatrice",
      "latitude": 48.885247,
      "longitude": 2.3566441
    },
    {
      "profession_id": 31,
      "contract_type": "FULL_TIME",
      "name": "[Louis Vuitton North America] Team Manager, RTW - NYC",
      "latitude": 40.7630463,
      "longitude": -73.973527
    },
    {
      "profession_id": 24,
      "contract_type": "INTERNSHIP",
      "name": "Stagiaire en Comptabilité et Gestion Administrative",
      "latitude": 48.8768868,
      "longitude": 2.3091203
    },
    {
      "profession_id": 17,
      "contract_type": "FULL_TIME",
      "name": "Compliance Manager",
      "latitude": 48.8867578,
      "longitude": 2.3253786
    },
    {
      "profession_id": 17,
      "contract_type": "FULL_TIME",
      "name": "3 Ingénieurs SI télécoms - H/F",
      "latitude": 48.8941822,
      "longitude": 2.2071125
    },
    {
      "profession_id": 8,
      "contract_type": "INTERNSHIP",
      "name": "[Christian Dior UK Ltd] Reception Intern, London",
      "latitude": 48.8661039,
      "longitude": 2.305791
    },
    {
      "profession_id": 31,
      "contract_type": "INTERNSHIP",
      "name": "[Parfums Christian Dior] STAGE CONSEILLER(E) DE VENTE SINOPHONE (F/H)",
      "latitude": 48.8758928,
      "longitude": 2.3007863
    },
    {
      "profession_id": 8,
      "contract_type": "APPRENTICESHIP",
      "name": "[Sephora SA] Alternance - Assistant(e) de direction Digital (H/F)",
      "latitude": 48.8661039,
      "longitude": 2.305791
    },
    {
      "profession_id": 3,
      "contract_type": "INTERNSHIP",
      "name": "[Bulgari Deutschland GmbH] Praktikant Marketing JWA (w/m) - München",
      "latitude": 48.1393657,
      "longitude": 11.5893701
    },
    {
      "profession_id": 31,
      "contract_type": "TEMPORARY",
      "name": "[Louis Vuitton Malletier] CDD - Conseiller de vente (H/F) - Lille",
      "latitude": 48.8661039,
      "longitude": 2.305791
    },
    {
      "profession_id": 24,
      "contract_type": "INTERNSHIP",
      "name": "[Louis Vuitton Malletier] Stagiaire Assistant(e) juriste droit des contrats",
      "latitude": 48.8661039,
      "longitude": 2.305791
    },
    {
      "profession_id": 7,
      "contract_type": "APPRENTICESHIP",
      "name": "[Christian Dior Couture] Alternance - Assistant(e) Développement Communications & Attentions Clients",
      "latitude": 48.8664383,
      "longitude": 2.3068733
    },
    {
      "profession_id": 12,
      "contract_type": "FULL_TIME",
      "name": "Head of Product",
      "latitude": 48.8709753,
      "longitude": 2.3353917
    },
    {
      "profession_id": 42,
      "contract_type": "INTERNSHIP",
      "name": "[Hennessy] Chargé(e) de mission conditionnement",
      "latitude": 45.6967475,
      "longitude": -0.331495
    },
    {
      "profession_id": 24,
      "contract_type": "FULL_TIME",
      "name": "[Fred Paris] Comptable Fournisseurs",
      "latitude": 48.8661039,
      "longitude": 2.305791
    },
    {
      "profession_id": 42,
      "contract_type": "TEMPORARY",
      "name": "[Parfums Christian Dior] CDD Chef de Projet Développement Packaging H/F",
      "latitude": 48.8758928,
      "longitude": 2.3007863
    },
    {
      "profession_id": 12,
      "contract_type": "FULL_TIME",
      "name": "QA Engineer (#2)",
      "latitude": 43.6795887,
      "longitude": 7.2039156
    },
    {
      "profession_id": 7,
      "contract_type": "APPRENTICESHIP",
      "name": "Chargé (e) de Marketing Digital H/F (alternance 4j/1j ou temps plein)",
      "latitude": 48.8746763,
      "longitude": 2.2909585
    },
    {
      "profession_id": 42,
      "contract_type": "INTERNSHIP",
      "name": "[Givenchy] Stage Assistant(e) Qualité Acessoires et Life Project",
      "latitude": 48.8653739,
      "longitude": 2.3010134
    },
    {
      "profession_id": 31,
      "contract_type": "FULL_TIME",
      "name": "[Moët Hennessy UK] Account Manager Bars, Bar Groups and Outer London",
      "latitude": 51.4975114,
      "longitude": -0.1474062
    },
    {
      "profession_id": 5,
      "contract_type": "FULL_TIME",
      "name": "Consultant(e) senior ou Manager en stratégie opérationnelle et relation clients",
      "latitude": 48.8794084,
      "longitude": 2.3247793
    },
    {
      "profession_id": 19,
      "contract_type": "FULL_TIME",
      "name": "Datascientist",
      "latitude": 48.8726558,
      "longitude": 2.3150565
    },
    {
      "profession_id": 10,
      "contract_type": "FULL_TIME",
      "name": "Account manager experimenté",
      "latitude": 48.8584013,
      "longitude": 2.3563308
    },
    {
      "profession_id": 1,
      "contract_type": "FULL_TIME",
      "name": "Compliance Analyst H/F",
      "latitude": 48.838672,
      "longitude": 2.2496474
    },
    {
      "profession_id": 14,
      "contract_type": "FULL_TIME",
      "name": "Développeur Front-End",
      "latitude": 45.7686221,
      "longitude": 4.8372363
    },
    {
      "profession_id": 7,
      "contract_type": "INTERNSHIP",
      "name": "Bras Droit Marketing Manager",
      "latitude": 48.8753693,
      "longitude": 2.3372256
    },
    {
      "profession_id": 17,
      "contract_type": "FULL_TIME",
      "name": "Software Engineer based in Paris/Marseille",
      "latitude": 48.8867578,
      "longitude": 2.3253786
    },
    {
      "profession_id": 7,
      "contract_type": "INTERNSHIP",
      "name": "STAGE : CHARGE DE MARKETING INTERNATIONAL OPÉRATIONNEL",
      "latitude": 48.8746763,
      "longitude": 2.2909585
    },
    {
      "profession_id": 12,
      "contract_type": "INTERNSHIP",
      "name": "Stage : Chef de projet systèmes d’information Scrum (H/F)",
      "latitude": 48.8188827,
      "longitude": 2.1979843
    },
    {
      "profession_id": 13,
      "contract_type": "FULL_TIME",
      "name": "Développeur Backend Ruby (Go/Elixir) H/F",
      "latitude": 48.865906,
      "longitude": 2.3455685
    },
    {
      "profession_id": 23,
      "contract_type": "FULL_TIME",
      "name": "Assistant(e) Administratif(ve) (Rabat)",
      "latitude": 33.9952405,
      "longitude": -6.8489701
    },
    {
      "profession_id": 16,
      "contract_type": "FULL_TIME",
      "name": "Développeur Full Stack Web et E-Commerce PHP 5/7 (H/F)",
      "latitude": 48.8861441,
      "longitude": 2.3015087
    },
    {
      "profession_id": 2,
      "contract_type": "FULL_TIME",
      "name": "Responsable Thiga Academy",
      "latitude": 48.8755587,
      "longitude": 2.3110176
    },
    {
      "profession_id": 21,
      "contract_type": "TEMPORARY",
      "name": "Programmeurs Engine",
      "latitude": 44.8500455,
      "longitude": -0.5712976
    },
    {
      "profession_id": 8,
      "contract_type": "FULL_TIME",
      "name": "Programmatic Analyst",
      "latitude": 48.8728253,
      "longitude": 2.3580059
    },
    {
      "profession_id": 11,
      "contract_type": "TEMPORARY",
      "name": "Artiste UI Hololens",
      "latitude": 44.8500455,
      "longitude": -0.5712976
    },
    {
      "profession_id": 2,
      "contract_type": "APPRENTICESHIP",
      "name": "Attaché(e) commercial(e) B to B - H/F - Alternance",
      "latitude": 50.6327114,
      "longitude": 3.0213156
    },
    {
      "profession_id": 5,
      "contract_type": "INTERNSHIP",
      "name": "STAGE : Startup Manager (Programme Starter)",
      "latitude": 48.8682471,
      "longitude": 2.3462831
    },
    {
      "profession_id": 2,
      "contract_type": "INTERNSHIP",
      "name": "STAGES YOOPIES - plusieurs stages à pourvoir : Bras droit CEO, Bras droit Talent manager, Buiz Dev, Webmarketing, Product Manager, etc.",
      "latitude": 48.8740718,
      "longitude": 2.3456194
    },
    {
      "profession_id": 2,
      "contract_type": "INTERNSHIP",
      "name": "Stage - Account Manager Junior Associate",
      "latitude": 48.8665766,
      "longitude": 2.3345591
    },
    {
      "profession_id": 2,
      "contract_type": "FULL_TIME",
      "name": "Commercial IT (H/F)",
      "latitude": 50.6138111,
      "longitude": 3.0423599
    },
    {
      "profession_id": 7,
      "contract_type": "INTERNSHIP",
      "name": "Assistant(e) chef de produit e-commerce",
      "latitude": 48.8206321,
      "longitude": 2.3428698
    },
    {
      "profession_id": 7,
      "contract_type": "INTERNSHIP",
      "name": "Assistant(e) Communication & Marketing",
      "latitude": 48.8206321,
      "longitude": 2.3428698
    },
    {
      "profession_id": 2,
      "contract_type": "FULL_TIME",
      "name": "Business Developer",
      "latitude": 48.8438234,
      "longitude": 2.3723829
    },
    {
      "profession_id": 2,
      "contract_type": "FULL_TIME",
      "name": "Key Account Manager (H/F)",
      "latitude": 50.6915589,
      "longitude": 3.2002554
    },
    {
      "profession_id": 9,
      "contract_type": "FULL_TIME",
      "name": "Manutentionnaire expérimenté H/F",
      "latitude": 48.8647081,
      "longitude": 2.2862537
    },
    {
      "profession_id": 2,
      "contract_type": "FULL_TIME",
      "name": "Inside Sales sur le marché UK",
      "latitude": 48.8933441,
      "longitude": 2.3527497
    },
    {
      "profession_id": 2,
      "contract_type": "FULL_TIME",
      "name": "Key Account Manager Paris (H/F)",
      "latitude": 48.8882043,
      "longitude": 2.3765587
    },
    {
      "profession_id": 12,
      "contract_type": "FULL_TIME",
      "name": "Backend developer & API craftsmanship (H/F)",
      "latitude": 48.8686208,
      "longitude": 2.3336298
    },
    {
      "profession_id": 10,
      "contract_type": "INTERNSHIP",
      "name": "Customer Services Agent - Germany H/F",
      "latitude": 48.8630635,
      "longitude": 2.3540795
    },
    {
      "profession_id": 38,
      "contract_type": "APPRENTICESHIP",
      "name": "Consultant junior Crise et Affaires Publiques",
      "latitude": 48.8749886,
      "longitude": 2.345589
    },
    {
      "profession_id": 16,
      "contract_type": "FULL_TIME",
      "name": "Développeur(se) JavaScript - “Avez-vous le bon Angular d’attaque ?”",
      "latitude": 48.8676101,
      "longitude": 2.3395891
    },
    {
      "profession_id": 2,
      "contract_type": "INTERNSHIP",
      "name": "Stage - Business Développement",
      "latitude": 48.884567,
      "longitude": 2.3276682
    },
    {
      "profession_id": 10,
      "contract_type": "FULL_TIME",
      "name": "Head of support and customer logistics",
      "latitude": 48.8804635,
      "longitude": 2.2873042
    },
    {
      "profession_id": 2,
      "contract_type": "FULL_TIME",
      "name": "Business developer en solution SaaS confirmé",
      "latitude": 48.8933441,
      "longitude": 2.3527497
    },
    {
      "profession_id": 2,
      "contract_type": "INTERNSHIP",
      "name": "HAPPY STAGE • COMMERCIAL(E) / BIZ DEV •",
      "latitude": 48.8693864,
      "longitude": 2.3727669
    },
    {
      "profession_id": 13,
      "contract_type": "FULL_TIME",
      "name": "Senior Back-End Engineer H/F",
      "latitude": 48.8630635,
      "longitude": 2.3540795
    },
    {
      "profession_id": 17,
      "contract_type": "INTERNSHIP",
      "name": "Mise en place d'un système visant à gérer les flux de véhicules en accès de site  - H/F",
      "latitude": 47.761336,
      "longitude": 2.519807
    },
    {
      "profession_id": 16,
      "contract_type": "FULL_TIME",
      "name": "Développeur multi langages et technologies (H/F)",
      "latitude": 48.8644045,
      "longitude": 2.342218
    },
    {
      "profession_id": 2,
      "contract_type": "APPRENTICESHIP",
      "name": "ALTERNANCE- Chef de Projet Junior-H/F",
      "latitude": 48.8941822,
      "longitude": 2.2071125
    },
    {
      "profession_id": 12,
      "contract_type": "FULL_TIME",
      "name": "Project Manager based in Paris/Marseille",
      "latitude": 48.8867578,
      "longitude": 2.3253786
    },
    {
      "profession_id": 8,
      "contract_type": "INTERNSHIP",
      "name": "Stage bras droit CEO",
      "latitude": 48.8845672,
      "longitude": 2.3452939
    },
    {
      "profession_id": 17,
      "contract_type": "FULL_TIME",
      "name": "QA Engineer",
      "latitude": 45.8079862,
      "longitude": 1.3295591
    },
    {
      "profession_id": 7,
      "contract_type": "INTERNSHIP",
      "name": "Assistant chef de projet Trade marketing/Retail (H/F)",
      "latitude": 48.8545413,
      "longitude": 2.3825196
    },
    {
      "profession_id": 12,
      "contract_type": "INTERNSHIP",
      "name": "Stage Ingénieur Production/Qualité",
      "latitude": 48.8893102,
      "longitude": 2.4136484
    },
    {
      "profession_id": 20,
      "contract_type": "FULL_TIME",
      "name": "Responsable Marketing & Acquisition Clients (H/F)",
      "latitude": 48.8746154,
      "longitude": 2.3506603
    },
    {
      "profession_id": 7,
      "contract_type": "APPRENTICESHIP",
      "name": "Assistant chef de projet Trade/Retail en alternance (H/F)",
      "latitude": 48.8545413,
      "longitude": 2.3825196
    },
    {
      "profession_id": 17,
      "contract_type": "INTERNSHIP",
      "name": "Développement d'un démonstrateur pour lunettes connectées Microsoft Hololens :conception API et services du backend(H/F) - H/F",
      "latitude": 48.8977009,
      "longitude": 2.1541059
    },
    {
      "profession_id": 12,
      "contract_type": "FULL_TIME",
      "name": "QA Développeur & Product Manager",
      "latitude": 48.8740718,
      "longitude": 2.3456194
    },
    {
      "profession_id": 41,
      "contract_type": "FULL_TIME",
      "name": "consultant en architecture des systèmes d'information (H/F)",
      "latitude": 48.8644045,
      "longitude": 2.342218
    },
    {
      "profession_id": 29,
      "contract_type": "FULL_TIME",
      "name": "DIRECTEUR/DIRECTRICE DE PROJETS",
      "latitude": 48.8587073,
      "longitude": 2.3873991
    },
    {
      "profession_id": 19,
      "contract_type": "FULL_TIME",
      "name": "Senior/Junior Data Science",
      "latitude": 48.8666868,
      "longitude": 2.3530999
    },
    {
      "profession_id": 10,
      "contract_type": "INTERNSHIP",
      "name": "Key account manager B to C / B to B",
      "latitude": 48.8443038,
      "longitude": 2.3743773
    },
    {
      "profession_id": 8,
      "contract_type": "INTERNSHIP",
      "name": "Chargé(e) d'Opérations",
      "latitude": 48.8810266,
      "longitude": 2.3643515
    },
    {
      "profession_id": 7,
      "contract_type": "FULL_TIME",
      "name": "Chargé(e) de marketing stratégique Immo H/F",
      "latitude": 48.8728253,
      "longitude": 2.3580059
    },
    {
      "profession_id": 14,
      "contract_type": "INTERNSHIP",
      "name": "Développeur Front-­End (Web 3.0)",
      "latitude": 45.780076,
      "longitude": 3.0708284
    },
    {
      "profession_id": "",
      "contract_type": "INTERNSHIP",
      "name": "Candidature spontanée: STAGE",
      "latitude": 45.7360395,
      "longitude": 4.8360923
    },
    {
      "profession_id": 11,
      "contract_type": "INTERNSHIP",
      "name": "[Loewe] Technical Drawings Intern",
      "latitude": 48.8661039,
      "longitude": 2.305791
    },
    {
      "profession_id": 2,
      "contract_type": "INTERNSHIP",
      "name": "Business Developper Internship",
      "latitude": 48.8683075,
      "longitude": 2.3520897
    },
    {
      "profession_id": 4,
      "contract_type": "FULL_TIME",
      "name": "Senior Director of Product Marketing",
      "latitude": 39.9184269,
      "longitude": -75.1366547
    },
    {
      "profession_id": 14,
      "contract_type": "FULL_TIME",
      "name": "WebDesigner/Front Developer",
      "latitude": 45.436588,
      "longitude": 4.3907478
    },
    {
      "profession_id": 8,
      "contract_type": "INTERNSHIP",
      "name": "Assistant Program Manager (Internship)",
      "latitude": 48.8734617,
      "longitude": 2.3533751
    },
    {
      "profession_id": 17,
      "contract_type": "FULL_TIME",
      "name": "Administrateur Système",
      "latitude": 48.8679273,
      "longitude": 2.3464027
    },
    {
      "profession_id": 31,
      "contract_type": "FULL_TIME",
      "name": "[Fendi North America] Client Advisor - Saks Chevy Chase",
      "latitude": 48.8661039,
      "longitude": 2.305791
    },
    {
      "profession_id": 2,
      "contract_type": "FULL_TIME",
      "name": "CDI - Business Développement - Annonceurs",
      "latitude": 48.884567,
      "longitude": 2.3276682
    },
    {
      "profession_id": 14,
      "contract_type": "FULL_TIME",
      "name": "Lead Front-End Engineer",
      "latitude": 48.8456544,
      "longitude": 2.3280869
    },
    {
      "profession_id": 13,
      "contract_type": "FULL_TIME",
      "name": "Développeur Back-­End (Web 3.0)",
      "latitude": 45.780076,
      "longitude": 3.0708284
    },
    {
      "profession_id": 7,
      "contract_type": "INTERNSHIP",
      "name": "[Chaumet International SA] Assistant(e) Marketing Opérationnel International",
      "latitude": 48.8666956,
      "longitude": 2.3305235
    },
    {
      "profession_id": 5,
      "contract_type": "FULL_TIME",
      "name": "Catalyst - Open Innovation",
      "latitude": 48.8734617,
      "longitude": 2.3533751
    },
    {
      "profession_id": 8,
      "contract_type": "FULL_TIME",
      "name": "Pilote Energie Lyon (H/F)",
      "latitude": 45.7641963,
      "longitude": 4.8531091
    },
    {
      "profession_id": 13,
      "contract_type": "FULL_TIME",
      "name": "Developpeur Backend Senior (.Net)",
      "latitude": 48.8751271,
      "longitude": 2.3396531
    },
    {
      "profession_id": 19,
      "contract_type": "FULL_TIME",
      "name": "H/F Intégrateur Informatique Modélisation",
      "latitude": 45.7635414,
      "longitude": 4.8584751
    },
    {
      "profession_id": 2,
      "contract_type": "FULL_TIME",
      "name": "Commercial CHR H/F",
      "latitude": 45.1894298,
      "longitude": 5.7165413
    },
    {
      "profession_id": 2,
      "contract_type": "INTERNSHIP",
      "name": "Stage - Business Developer - Nantes",
      "latitude": 47.218371,
      "longitude": -1.553621
    },
    {
      "profession_id": 1,
      "contract_type": "INTERNSHIP",
      "name": "Stage Audit et Contrôle Interne H/F",
      "latitude": 48.8723932,
      "longitude": 2.3298969
    },
    {
      "profession_id": 24,
      "contract_type": "TEMPORARY",
      "name": "Aide comptable (H/F)",
      "latitude": 48.8730122,
      "longitude": 2.3163443
    },
    {
      "profession_id": 12,
      "contract_type": "FULL_TIME",
      "name": "International Customer Project Manager (#2)",
      "latitude": 43.6795887,
      "longitude": 7.2039156
    },
    {
      "profession_id": 14,
      "contract_type": "FULL_TIME",
      "name": "Développeur front-end senior H/F",
      "latitude": 48.8939624,
      "longitude": 2.3540829
    },
    {
      "profession_id": 16,
      "contract_type": "FULL_TIME",
      "name": "Ingénieur d’études et développement FULLSTACK Angular/Node (H/F)",
      "latitude": 48.9180373,
      "longitude": 2.3567934
    },
    {
      "profession_id": 7,
      "contract_type": "FULL_TIME",
      "name": "Chargé de marketing stratégique Auto H/F",
      "latitude": 48.8728253,
      "longitude": 2.3580059
    },
    {
      "profession_id": 16,
      "contract_type": "INTERNSHIP",
      "name": "Stage de développement d’un module de montage automatique",
      "latitude": 45.780076,
      "longitude": 3.0708284
    },
    {
      "profession_id": 16,
      "contract_type": "FULL_TIME",
      "name": "Développeu-r/se Fullstack (React JS / Ruby)",
      "latitude": 48.868437,
      "longitude": 2.3658326
    },
    {
      "profession_id": 2,
      "contract_type": "FULL_TIME",
      "name": "BUSINESS DEVELOPER",
      "latitude": 48.8859879,
      "longitude": 2.2500769
    },
    {
      "profession_id": 13,
      "contract_type": "INTERNSHIP",
      "name": "Développeur Back­-End (Web 3.0)",
      "latitude": 45.780076,
      "longitude": 3.0708284
    },
    {
      "profession_id": 12,
      "contract_type": "FULL_TIME",
      "name": "H/F Chef de projet technique",
      "latitude": 45.7635414,
      "longitude": 4.8584751
    },
    {
      "profession_id": 2,
      "contract_type": "FULL_TIME",
      "name": "Commercial CHR H/F",
      "latitude": 44.933393,
      "longitude": 4.89236
    },
    {
      "profession_id": 2,
      "contract_type": "INTERNSHIP",
      "name": "Business Developer (H/F)",
      "latitude": 48.8746763,
      "longitude": 2.2909585
    },
    {
      "profession_id": 2,
      "contract_type": "INTERNSHIP",
      "name": "Stage - Business Developer - Lyon",
      "latitude": 45.7509616,
      "longitude": 4.8401111
    },
    {
      "profession_id": 42,
      "contract_type": "TEMPORARY",
      "name": "Rédacteur Web - Anglais (H/F)",
      "latitude": 45.7862161,
      "longitude": 3.1370528
    },
    {
      "profession_id": 12,
      "contract_type": "FULL_TIME",
      "name": "International Customer Project Manager (#1)",
      "latitude": 43.6795887,
      "longitude": 7.2039156
    },
    {
      "profession_id": 2,
      "contract_type": "INTERNSHIP",
      "name": "Stage - Business Developer - Lille",
      "latitude": "",
      "longitude": ""
    },
    {
      "profession_id": 10,
      "contract_type": "TEMPORARY",
      "name": "Chargé de clientèle (H/F)",
      "latitude": 48.8746763,
      "longitude": 2.2909585
    },
    {
      "profession_id": 10,
      "contract_type": "INTERNSHIP",
      "name": "Stage Assistant Marketing / Commercial (H-F)",
      "latitude": 46.1547046,
      "longitude": -1.2002398
    },
    {
      "profession_id": 8,
      "contract_type": "INTERNSHIP",
      "name": "Operations City Launcher - Intern (Lyon)",
      "latitude": 45.764043,
      "longitude": 4.835659
    },
    {
      "profession_id": 2,
      "contract_type": "FULL_TIME",
      "name": "Key Account Manager B2B",
      "latitude": 48.8921828,
      "longitude": 2.3202414
    },
    {
      "profession_id": 8,
      "contract_type": "INTERNSHIP",
      "name": "KYC CONTROLLER (INTERNSHIP)",
      "latitude": 48.8621728,
      "longitude": 2.4362174
    },
    {
      "profession_id": 13,
      "contract_type": "FULL_TIME",
      "name": "Java Developer/Back Office",
      "latitude": 43.6795887,
      "longitude": 7.2039156
    },
    {
      "profession_id": 17,
      "contract_type": "FULL_TIME",
      "name": "Infrastructure Engineer based in Paris/Marseille",
      "latitude": 48.8867578,
      "longitude": 2.3253786
    },
    {
      "profession_id": 19,
      "contract_type": "APPRENTICESHIP",
      "name": "Alternance analyste performance commerciale H/F",
      "latitude": 48.856614,
      "longitude": 2.3522219
    },
    {
      "profession_id": 4,
      "contract_type": "FULL_TIME",
      "name": "Community Manager",
      "latitude": 48.8780621,
      "longitude": 2.3410958
    },
    {
      "profession_id": 1,
      "contract_type": "FULL_TIME",
      "name": "Actuaire Confirmé(e)",
      "latitude": 48.8941822,
      "longitude": 2.2071125
    },
    {
      "profession_id": 2,
      "contract_type": "INTERNSHIP",
      "name": "Stage en BizDev (H/F)",
      "latitude": 48.8641096,
      "longitude": 2.3496453
    },
    {
      "profession_id": 11,
      "contract_type": "FULL_TIME",
      "name": "User Experience Designer H/F",
      "latitude": 48.8979513,
      "longitude": 2.2789421
    },
    {
      "profession_id": 10,
      "contract_type": "FULL_TIME",
      "name": "IT Assistant",
      "latitude": 1.352083,
      "longitude": 103.819836
    },
    {
      "profession_id": 2,
      "contract_type": "FULL_TIME",
      "name": "Chef de projet (H/F)",
      "latitude": 48.8746763,
      "longitude": 2.2909585
    },
    {
      "profession_id": 20,
      "contract_type": "FULL_TIME",
      "name": "Développeur SEO",
      "latitude": 48.868199,
      "longitude": 2.366387
    },
    {
      "profession_id": 7,
      "contract_type": "FULL_TIME",
      "name": "Responsable Editorial & Etudes de marché internationales (H/F)",
      "latitude": 48.8746763,
      "longitude": 2.2909585
    },
    {
      "profession_id": 11,
      "contract_type": "FULL_TIME",
      "name": "Senior User Experience Designer H/F",
      "latitude": 48.8979513,
      "longitude": 2.2789421
    },
    {
      "profession_id": 12,
      "contract_type": "INTERNSHIP",
      "name": "Consultant technique stagiaire",
      "latitude": 48.8979513,
      "longitude": 2.2789421
    },
    {
      "profession_id": 12,
      "contract_type": "FULL_TIME",
      "name": "Consultant Technique",
      "latitude": 48.8979513,
      "longitude": 2.2789421
    },
    {
      "profession_id": 15,
      "contract_type": "FULL_TIME",
      "name": "Ingénieur Android Senior H/F",
      "latitude": 48.8979513,
      "longitude": 2.2789421
    },
    {
      "profession_id": 2,
      "contract_type": "FULL_TIME",
      "name": "Sales",
      "latitude": 48.8352643,
      "longitude": 2.2856129
    },
    {
      "profession_id": 2,
      "contract_type": "INTERNSHIP",
      "name": "Bras droit Consultant expert (H/F)",
      "latitude": 48.8709753,
      "longitude": 2.3353917
    },
    {
      "profession_id": 16,
      "contract_type": "FULL_TIME",
      "name": "Lead Product & Software Engineer",
      "latitude": 48.8441369,
      "longitude": 2.372446
    },
    {
      "profession_id": 2,
      "contract_type": "FULL_TIME",
      "name": "Sales Executive H/F",
      "latitude": 48.8749886,
      "longitude": 2.345589
    },
    {
      "profession_id": 10,
      "contract_type": "INTERNSHIP",
      "name": "Bras droit Celebrity Manager (H/F)",
      "latitude": 48.8709753,
      "longitude": 2.3353917
    },
    {
      "profession_id": 16,
      "contract_type": "FULL_TIME",
      "name": "Développeur Lead",
      "latitude": 48.8377599,
      "longitude": 2.3338316
    },
    {
      "profession_id": 5,
      "contract_type": "FULL_TIME",
      "name": "Consultant H/F",
      "latitude": 48.8138356,
      "longitude": 2.3222869
    },
    {
      "profession_id": 19,
      "contract_type": "INTERNSHIP",
      "name": "Growth Hacker",
      "latitude": 48.8527587,
      "longitude": 2.3319302
    },
    {
      "profession_id": 2,
      "contract_type": "APPRENTICESHIP",
      "name": "Business Developer anglophone (H/F) -  alternance 4j/1j impératif - Juillet 2017",
      "latitude": 48.8746763,
      "longitude": 2.2909585
    },
    {
      "profession_id": 7,
      "contract_type": "INTERNSHIP",
      "name": "UX/UI Designer (H/F)",
      "latitude": 48.8709753,
      "longitude": 2.3353917
    },
    {
      "profession_id": 1,
      "contract_type": "INTERNSHIP",
      "name": "Stage \"DAF\", bras droit du CEO !",
      "latitude": 48.8138356,
      "longitude": 2.3222869
    },
    {
      "profession_id": 29,
      "contract_type": "APPRENTICESHIP",
      "name": "Chargé(e) de partenariat Grands Comptes (H/F) - alternance 4j/1j impératif",
      "latitude": 48.8746763,
      "longitude": 2.2909585
    },
    {
      "profession_id": 12,
      "contract_type": "FULL_TIME",
      "name": "Consultant Qualification d'équipements de production (H/F)",
      "latitude": 48.8268305,
      "longitude": 2.2236763
    },
    {
      "profession_id": 13,
      "contract_type": "FULL_TIME",
      "name": "Développeur(se) WEB / PHP / SYMFONY 2",
      "latitude": 48.8679273,
      "longitude": 2.3464027
    },
    {
      "profession_id": 12,
      "contract_type": "FULL_TIME",
      "name": "Dessinateur Projeteur Solidworks/Autocad/PDMS (H/F)",
      "latitude": 48.8268305,
      "longitude": 2.2236763
    },
    {
      "profession_id": 17,
      "contract_type": "APPRENTICESHIP",
      "name": "Bac+2 en Informatique - H/F",
      "latitude": 47.471202,
      "longitude": 2.872511
    },
    {
      "profession_id": 1,
      "contract_type": "FULL_TIME",
      "name": "Data Scientist H/F",
      "latitude": 44.8391346,
      "longitude": -0.6867939
    },
    {
      "profession_id": 38,
      "contract_type": "INTERNSHIP",
      "name": "H/F STAGE BRAS DROIT DIRECTION GENERALE",
      "latitude": 48.8715176,
      "longitude": 2.3107874
    },
    {
      "profession_id": 41,
      "contract_type": "FULL_TIME",
      "name": "Consultant Validation des systèmes informatisés (H/F) - secteur pharmaceutiqe",
      "latitude": 48.8268305,
      "longitude": 2.2236763
    },
    {
      "profession_id": 2,
      "contract_type": "FULL_TIME",
      "name": "UK Country Manager",
      "latitude": 51.5272507,
      "longitude": -0.086964
    },
    {
      "profession_id": 8,
      "contract_type": "APPRENTICESHIP",
      "name": "Account Manager (Alternant)",
      "latitude": 48.7824018,
      "longitude": 2.3145079
    },
    {
      "profession_id": 12,
      "contract_type": "FULL_TIME",
      "name": "VP Product",
      "latitude": 48.875099,
      "longitude": 2.3401515
    },
    {
      "profession_id": 29,
      "contract_type": "FULL_TIME",
      "name": "Chef de Projet événementiel (H/F)",
      "latitude": 48.8746763,
      "longitude": 2.2909585
    },
    {
      "profession_id": 7,
      "contract_type": "FULL_TIME",
      "name": "VP Marketing",
      "latitude": 48.875099,
      "longitude": 2.3401515
    },
    {
      "profession_id": 8,
      "contract_type": "FULL_TIME",
      "name": "Travaux Planer - Chef de chantier mobile",
      "latitude": 48.8693864,
      "longitude": 2.3727669
    },
    {
      "profession_id": 10,
      "contract_type": "INTERNSHIP",
      "name": "Stage Customer Happiness Manager",
      "latitude": 48.8822687,
      "longitude": 2.2940423
    },
    {
      "profession_id": 2,
      "contract_type": "INTERNSHIP",
      "name": "Stage - Business Developer - Strasbourg",
      "latitude": 48.5734053,
      "longitude": 7.7521113
    },
    {
      "profession_id": 2,
      "contract_type": "FULL_TIME",
      "name": "E-Distribution Advisor BeNeLux",
      "latitude": 52.3105386,
      "longitude": 4.7682744
    },
    {
      "profession_id": 13,
      "contract_type": "FULL_TIME",
      "name": "Ingénieur Etudes et développement JEE H/F",
      "latitude": 47.2239586,
      "longitude": -1.5408058
    },
    {
      "profession_id": 2,
      "contract_type": "APPRENTICESHIP",
      "name": "Knowledge Management junior (H/F)",
      "latitude": 48.8941822,
      "longitude": 2.2071125
    },
    {
      "profession_id": 12,
      "contract_type": "FULL_TIME",
      "name": "Ingénieur d'études Génie Civil (H/F)",
      "latitude": 48.8268305,
      "longitude": 2.2236763
    },
    {
      "profession_id": 15,
      "contract_type": "FULL_TIME",
      "name": "Développeur Mobile iOS/Android H/F",
      "latitude": 48.8755587,
      "longitude": 2.3110176
    },
    {
      "profession_id": 7,
      "contract_type": "FULL_TIME",
      "name": "Monetization Manager (Senior)",
      "latitude": 48.8697856,
      "longitude": 2.3444351
    },
    {
      "profession_id": 41,
      "contract_type": "FULL_TIME",
      "name": "Business Analyst - Retail / Moyen de Paiement H/F",
      "latitude": 48.8747727,
      "longitude": 2.3331121
    },
    {
      "profession_id": 16,
      "contract_type": "FULL_TIME",
      "name": "Dévelopeur Wordpress / PHP / JS - Expérimenté",
      "latitude": 48.8597311,
      "longitude": 2.3793472
    },
    {
      "profession_id": 10,
      "contract_type": "TEMPORARY",
      "name": "IT主管",
      "latitude": 39.6219798,
      "longitude": 118.1665847
    },
    {
      "profession_id": 13,
      "contract_type": "FULL_TIME",
      "name": "BACK-END DEVELOPER",
      "latitude": 48.8859879,
      "longitude": 2.2500769
    },
    {
      "profession_id": 2,
      "contract_type": "INTERNSHIP",
      "name": "Stage - Business Developer - Bordeaux",
      "latitude": 44.837789,
      "longitude": -0.57918
    },
    {
      "profession_id": 26,
      "contract_type": "INTERNSHIP",
      "name": "Chargé(e) de Recrutement/Chasse de talents",
      "latitude": 48.8722357,
      "longitude": 2.3276039
    },
    {
      "profession_id": 26,
      "contract_type": "INTERNSHIP",
      "name": "(♂/♀) Bras droit (musclé) de CEO",
      "latitude": 48.8505093,
      "longitude": 2.3694831
    },
    {
      "profession_id": 21,
      "contract_type": "FULL_TIME",
      "name": "Ingénieur développement embarqué C/C++ (H/F)",
      "latitude": 48.8268305,
      "longitude": 2.2236763
    },
    {
      "profession_id": 4,
      "contract_type": "FULL_TIME",
      "name": "Social Media Manager",
      "latitude": 45.8461393,
      "longitude": 1.2918724
    },
    {
      "profession_id": 8,
      "contract_type": "INTERNSHIP",
      "name": "Customer Success & Operations Manager",
      "latitude": 48.8830177,
      "longitude": 2.3688147
    },
    {
      "profession_id": 13,
      "contract_type": "FULL_TIME",
      "name": "DevOps (H/F) - CDI",
      "latitude": 48.8725652,
      "longitude": 2.3272068
    },
    {
      "profession_id": 10,
      "contract_type": "INTERNSHIP",
      "name": "Assistant chef de projet relation client - Gambettes Box",
      "latitude": 48.8830412,
      "longitude": 2.3478344
    },
    {
      "profession_id": 5,
      "contract_type": "INTERNSHIP",
      "name": "Junior Program Manager DataCity Paris",
      "latitude": 48.8676305,
      "longitude": 2.3495396
    },
    {
      "profession_id": 7,
      "contract_type": "INTERNSHIP",
      "name": "STAGE - Chef de Projet Marketing CRM (H/F)",
      "latitude": 48.8961335,
      "longitude": 2.3812061
    },
    {
      "profession_id": 24,
      "contract_type": "FULL_TIME",
      "name": "Responsable d’équipe Comptable Pôle Paiement",
      "latitude": 48.8941822,
      "longitude": 2.2071125
    },
    {
      "profession_id": 13,
      "contract_type": "INTERNSHIP",
      "name": "Stage - développeur Ruby On Rails (H/F)",
      "latitude": 48.8709753,
      "longitude": 2.3353917
    },
    {
      "profession_id": 7,
      "contract_type": "INTERNSHIP",
      "name": "Media Research Analyst (h/f)",
      "latitude": 48.8709753,
      "longitude": 2.3353917
    },
    {
      "profession_id": 31,
      "contract_type": "FULL_TIME",
      "name": "Directeur des opérations internationales",
      "latitude": 50.6967126,
      "longitude": 3.1694802
    },
    {
      "profession_id": 2,
      "contract_type": "FULL_TIME",
      "name": "Sales Manager",
      "latitude": 48.8867578,
      "longitude": 2.3253786
    },
    {
      "profession_id": 1,
      "contract_type": "FULL_TIME",
      "name": "Auditeur Interne IT (H/F)",
      "latitude": 48.8442262,
      "longitude": 2.3830552
    },
    {
      "profession_id": 8,
      "contract_type": "FULL_TIME",
      "name": "Director, Operations Criteo Predictive Search",
      "latitude": 34.0522342,
      "longitude": -118.2436849
    },
    {
      "profession_id": 6,
      "contract_type": "INTERNSHIP",
      "name": "Alternance Rédacteur international",
      "latitude": 48.8746763,
      "longitude": 2.2909585
    },
    {
      "profession_id": 16,
      "contract_type": "INTERNSHIP",
      "name": "DEVELOPPEUR FULL STACK (H/F)",
      "latitude": 48.84616,
      "longitude": 2.3281789
    },
    {
      "profession_id": 19,
      "contract_type": "FULL_TIME",
      "name": "Senior Data Engineer (H/F)",
      "latitude": 48.8725652,
      "longitude": 2.3272068
    },
    {
      "profession_id": 12,
      "contract_type": "FULL_TIME",
      "name": "Chef de projet ferroviaire (H/F)",
      "latitude": 48.8268305,
      "longitude": 2.2236763
    },
    {
      "profession_id": 2,
      "contract_type": "FULL_TIME",
      "name": "BUSINESS DEVELOPER (H/F)",
      "latitude": 48.84616,
      "longitude": 2.3281789
    },
    {
      "profession_id": 13,
      "contract_type": "FULL_TIME",
      "name": "PHP developer Back-end",
      "latitude": 48.8742194,
      "longitude": 2.3472017
    },
    {
      "profession_id": 29,
      "contract_type": "APPRENTICESHIP",
      "name": "CHARGÉ(E) D’ÉVÉNEMENTIEL (Contrat pro ou alternance (4j/1j impératif) à partir de juillet 2017)",
      "latitude": 48.8746763,
      "longitude": 2.2909585
    },
    {
      "profession_id": 13,
      "contract_type": "FULL_TIME",
      "name": "Développeur Backend - Magento",
      "latitude": 48.8597311,
      "longitude": 2.3793472
    },
    {
      "profession_id": 31,
      "contract_type": "FULL_TIME",
      "name": "Conseiller(e) de vente",
      "latitude": 48.8696835,
      "longitude": 2.3512537
    },
    {
      "profession_id": 12,
      "contract_type": "FULL_TIME",
      "name": "Ingénieur spécialisé en Traction électrique et/ou Caténaire (H/F)",
      "latitude": 48.8268305,
      "longitude": 2.2236763
    },
    {
      "profession_id": 21,
      "contract_type": "FULL_TIME",
      "name": "Ingénieur Conception Pièces Plastiques (H/F)",
      "latitude": 48.8268305,
      "longitude": 2.2236763
    },
    {
      "profession_id": 17,
      "contract_type": "APPRENTICESHIP",
      "name": "Alternance Ingénieur - Réalité Virtuelle et Augmentée  - H/F",
      "latitude": 48.7127494,
      "longitude": 2.2265114
    },
    {
      "profession_id": 3,
      "contract_type": "APPRENTICESHIP",
      "name": "Alternant Chargé d’Etudes Médias et Communication Digitale H/F",
      "latitude": 48.893217,
      "longitude": 2.287864
    },
    {
      "profession_id": 2,
      "contract_type": "FULL_TIME",
      "name": "Business Developer H/F - Nantes",
      "latitude": 47.2192427,
      "longitude": -1.5543652
    },
    {
      "profession_id": 17,
      "contract_type": "APPRENTICESHIP",
      "name": "ALTERNANCE-INGENIEUR SI IT - H/F",
      "latitude": 47.761336,
      "longitude": 2.519807
    },
    {
      "profession_id": 17,
      "contract_type": "FULL_TIME",
      "name": "Ingénieur SI Télécoms - H/F",
      "latitude": 48.8941822,
      "longitude": 2.2071125
    },
    {
      "profession_id": 17,
      "contract_type": "FULL_TIME",
      "name": "Ingénieur sécurité SI infrastructures - H/F",
      "latitude": 48.8941822,
      "longitude": 2.2071125
    },
    {
      "profession_id": 17,
      "contract_type": "FULL_TIME",
      "name": "Ingénieur réseau - H/F",
      "latitude": 48.8941822,
      "longitude": 2.2071125
    },
    {
      "profession_id": 6,
      "contract_type": "INTERNSHIP",
      "name": "Rédacteur / chargé de contenu (H/F)",
      "latitude": 48.8746763,
      "longitude": 2.2909585
    },
    {
      "profession_id": 17,
      "contract_type": "FULL_TIME",
      "name": "2 Concepteurs SAP central finance - H/F",
      "latitude": 48.8941822,
      "longitude": 2.2071125
    },
    {
      "profession_id": 17,
      "contract_type": "FULL_TIME",
      "name": "2 Développeurs projets web et mobiles futur scrum master - H/F",
      "latitude": 48.8941822,
      "longitude": 2.2071125
    },
    {
      "profession_id": 17,
      "contract_type": "FULL_TIME",
      "name": "Expert DevOps - H/F",
      "latitude": 48.8941822,
      "longitude": 2.2071125
    },
    {
      "profession_id": 2,
      "contract_type": "FULL_TIME",
      "name": "Business Developper CDI",
      "latitude": 48.8683075,
      "longitude": 2.3520897
    },
    {
      "profession_id": 14,
      "contract_type": "FULL_TIME",
      "name": "Développeur Front-end – Paris (H/F)",
      "latitude": 48.8683316,
      "longitude": 2.3554578
    },
    {
      "profession_id": 17,
      "contract_type": "FULL_TIME",
      "name": "Référent méthodes et outils tests Agiles/DevOps - H/F",
      "latitude": 48.8941822,
      "longitude": 2.2071125
    },
    {
      "profession_id": 14,
      "contract_type": "FULL_TIME",
      "name": "Front Designer / CSS Ninja",
      "latitude": 49.4285905,
      "longitude": 1.0656704
    },
    {
      "profession_id": 13,
      "contract_type": "FULL_TIME",
      "name": "Expert technique  H/F",
      "latitude": 47.2239586,
      "longitude": -1.5408058
    },
    {
      "profession_id": 17,
      "contract_type": "APPRENTICESHIP",
      "name": "ALTERNANCE-ING INFO OU MASTER INFORMATIQUE - H/F",
      "latitude": 48.8941822,
      "longitude": 2.2071125
    },
    {
      "profession_id": 7,
      "contract_type": "INTERNSHIP",
      "name": "Chargé(e) de Marketing et Communication",
      "latitude": 43.6009799,
      "longitude": 7.0929018
    },
    {
      "profession_id": 10,
      "contract_type": "FULL_TIME",
      "name": "Service Client Espagne + France & Spain Customer Happiness",
      "latitude": 48.8740718,
      "longitude": 2.3456194
    },
    {
      "profession_id": 17,
      "contract_type": "FULL_TIME",
      "name": "DevOps H/F",
      "latitude": 48.8755587,
      "longitude": 2.3110176
    },
    {
      "profession_id": 13,
      "contract_type": "FULL_TIME",
      "name": "Reconversion Futur Ingénieur Informatique H/F",
      "latitude": 47.2239586,
      "longitude": -1.5408058
    },
    {
      "profession_id": 17,
      "contract_type": "FULL_TIME",
      "name": "Intégrateur de services IT confirmé - H/F",
      "latitude": 45.397062,
      "longitude": 4.77432
    },
    {
      "profession_id": 6,
      "contract_type": "INTERNSHIP",
      "name": "Journaliste – Droit & Régulation (H/F)",
      "latitude": 48.8746763,
      "longitude": 2.2909585
    },
    {
      "profession_id": 12,
      "contract_type": "FULL_TIME",
      "name": "Consultant services numériques innovants - Extranet H/F",
      "latitude": 45.7643717,
      "longitude": 4.8377061
    },
    {
      "profession_id": 8,
      "contract_type": "INTERNSHIP",
      "name": "Stage Business Developpement / Opérations",
      "latitude": 48.8640888,
      "longitude": 2.3437342
    },
    {
      "profession_id": 2,
      "contract_type": "TEMPORARY",
      "name": "Join one of our overseas DMC partner",
      "latitude": "",
      "longitude": ""
    },
    {
      "profession_id": 3,
      "contract_type": "INTERNSHIP",
      "name": "Chargé(e) de Communication & Marketing",
      "latitude": 48.8694099,
      "longitude": 2.3324079
    },
    {
      "profession_id": 3,
      "contract_type": "FULL_TIME",
      "name": "Responsable communication et événements",
      "latitude": 48.8780621,
      "longitude": 2.3410958
    },
    {
      "profession_id": 26,
      "contract_type": "INTERNSHIP",
      "name": "Stagiaire Acquisition de Talents Digitaux / Sourceur 2.0.",
      "latitude": 48.8730907,
      "longitude": 2.3176989
    },
    {
      "profession_id": 28,
      "contract_type": "INTERNSHIP",
      "name": "Graphiste Web et Print - Stage",
      "latitude": 45.7686221,
      "longitude": 4.8372363
    },
    {
      "profession_id": 13,
      "contract_type": "FULL_TIME",
      "name": "Ingénieur d'Études Décisionnel SAS confirmé H/F",
      "latitude": 47.2239586,
      "longitude": -1.5408058
    },
    {
      "profession_id": 5,
      "contract_type": "FULL_TIME",
      "name": "Senior Sales Operations Analyst H/F",
      "latitude": 48.8763776,
      "longitude": 2.330525
    },
    {
      "profession_id": 26,
      "contract_type": "FULL_TIME",
      "name": "Chargé(e) de Ressources Humaines H/F",
      "latitude": 48.8763776,
      "longitude": 2.330525
    },
    {
      "profession_id": 12,
      "contract_type": "FULL_TIME",
      "name": "Product Analyst HF",
      "latitude": 48.8375991,
      "longitude": 2.2727875
    },
    {
      "profession_id": 19,
      "contract_type": "FULL_TIME",
      "name": "Référent Digital – Recherche et Recommandation Produit",
      "latitude": 48.8893211,
      "longitude": 2.386995
    },
    {
      "profession_id": 8,
      "contract_type": "INTERNSHIP",
      "name": "Junior Startup Manager (NUMA @ Station F)",
      "latitude": 48.8676305,
      "longitude": 2.3495396
    },
    {
      "profession_id": 17,
      "contract_type": "APPRENTICESHIP",
      "name": "Alternance - MASTER INFORMATIQUE - LILLE - H/F",
      "latitude": 50.6144068,
      "longitude": 3.1180785
    },
    {
      "profession_id": 7,
      "contract_type": "APPRENTICESHIP",
      "name": "Chargé de Marketing (H/F) - Contrat Pro",
      "latitude": 48.8746763,
      "longitude": 2.2909585
    },
    {
      "profession_id": 17,
      "contract_type": "APPRENTICESHIP",
      "name": "ALTERNANCE : Master 2 Métiers de l'Informatique et Maîtrise d'Ouvrage (MIMO) - H/F",
      "latitude": 48.9315523,
      "longitude": 2.3563278
    },
    {
      "profession_id": 17,
      "contract_type": "APPRENTICESHIP",
      "name": "Alternance - Ingénieur e-monitoring Chimie - H/F",
      "latitude": 48.9315523,
      "longitude": 2.3563278
    },
    {
      "profession_id": 12,
      "contract_type": "FULL_TIME",
      "name": "Director Product Management RTB",
      "latitude": 40.7127837,
      "longitude": -74.0059413
    },
    {
      "profession_id": 17,
      "contract_type": "APPRENTICESHIP",
      "name": "ALTERNANCE-MASTER INFORMATIQUE OPTION Système d''Information-St Denis - H/F",
      "latitude": 48.9315523,
      "longitude": 2.3563278
    },
    {
      "profession_id": 17,
      "contract_type": "APPRENTICESHIP",
      "name": "Ingénieur PROJET INFORMATIQUE à ST DENIS (93 - H/F",
      "latitude": 48.9315523,
      "longitude": 2.3563278
    },
    {
      "profession_id": 2,
      "contract_type": "FULL_TIME",
      "name": "Head of Sales, India",
      "latitude": 28.4594965,
      "longitude": 77.0266383
    },
    {
      "profession_id": 28,
      "contract_type": "INTERNSHIP",
      "name": "Stage Graphiste (H/F)",
      "latitude": 48.8832455,
      "longitude": 2.268409
    },
    {
      "profession_id": 12,
      "contract_type": "FULL_TIME",
      "name": "Chef de projet Expérimenté H/F",
      "latitude": 47.2239586,
      "longitude": -1.5408058
    },
    {
      "profession_id": 2,
      "contract_type": "INTERNSHIP",
      "name": "STAGE BUSINESS DEVELOPPEMENT",
      "latitude": 48.8138356,
      "longitude": 2.3222869
    },
    {
      "profession_id": 13,
      "contract_type": "FULL_TIME",
      "name": "Ingénieur d'études décisionnel datastage confirmé H/F",
      "latitude": 47.2239586,
      "longitude": -1.5408058
    },
    {
      "profession_id": 28,
      "contract_type": "INTERNSHIP",
      "name": "Photographe/ graphiste (H/F)",
      "latitude": 48.8438234,
      "longitude": 2.3723829
    },
    {
      "profession_id": 10,
      "contract_type": "FULL_TIME",
      "name": "Chef de Projet / Responsable de Production",
      "latitude": 48.8753745,
      "longitude": 2.3664748
    },
    {
      "profession_id": 3,
      "contract_type": "INTERNSHIP",
      "name": "Graphiste/Designer",
      "latitude": 48.8493964,
      "longitude": 2.3686625
    },
    {
      "profession_id": 23,
      "contract_type": "TEMPORARY",
      "name": "Chargé(e) de relation clientèle bilingue Espagne - Italie",
      "latitude": 43.6045667,
      "longitude": 1.4519826
    },
    {
      "profession_id": 17,
      "contract_type": "APPRENTICESHIP",
      "name": "Alternant(e) en Informatique et Calcul scientifique  - H/F",
      "latitude": 48.8977009,
      "longitude": 2.1541059
    },
    {
      "profession_id": 26,
      "contract_type": "FULL_TIME",
      "name": "Chargé de recrutement confirmé – Futur Manager",
      "latitude": 48.8509742,
      "longitude": 2.385813
    },
    {
      "profession_id": 8,
      "contract_type": "FULL_TIME",
      "name": "Chargé de Relations Chauffeurs H/F (Onboarding)",
      "latitude": 48.8964425,
      "longitude": 2.2981273
    },
    {
      "profession_id": 29,
      "contract_type": "FULL_TIME",
      "name": "CONTENT AND EVENTS MANAGER H/F",
      "latitude": 48.8676305,
      "longitude": 2.3495396
    },
    {
      "profession_id": 8,
      "contract_type": "FULL_TIME",
      "name": "Pilote Energie Paris (H/F)",
      "latitude": 48.8721388,
      "longitude": 2.3411542
    },
    {
      "profession_id": 17,
      "contract_type": "APPRENTICESHIP",
      "name": "Alternance - Technicien d'essais en laboratoire - H/F",
      "latitude": 48.3603526,
      "longitude": 2.8268921
    },
    {
      "profession_id": 12,
      "contract_type": "FULL_TIME",
      "name": "Chef de projet digital Sénior (H/F)",
      "latitude": 48.8893211,
      "longitude": 2.386995
    },
    {
      "profession_id": 13,
      "contract_type": "FULL_TIME",
      "name": "[Celine] Chef de projet Retail (F/H)",
      "latitude": 48.8682291,
      "longitude": 2.3079073
    },
    {
      "profession_id": 17,
      "contract_type": "APPRENTICESHIP",
      "name": "Alternance - Management projets SI - H/F",
      "latitude": 45.247987,
      "longitude": -0.626174
    },
    {
      "profession_id": 2,
      "contract_type": "INTERNSHIP",
      "name": "STAGE FIN D'ETUDES - Recruteur connecté – Chasseur de têtes",
      "latitude": 48.8509742,
      "longitude": 2.385813
    },
    {
      "profession_id": 16,
      "contract_type": "FULL_TIME",
      "name": "Lead Developpeur",
      "latitude": 48.8659806,
      "longitude": 2.3499528
    },
    {
      "profession_id": 2,
      "contract_type": "FULL_TIME",
      "name": "(Senior) Account Strategist Germany",
      "latitude": 48.1351253,
      "longitude": 11.5819806
    },
    {
      "profession_id": 3,
      "contract_type": "TEMPORARY",
      "name": "Maquettiste PAO_Metteur en page_Infographiste",
      "latitude": 45.4210585,
      "longitude": 4.3690571
    },
    {
      "profession_id": 26,
      "contract_type": "INTERNSHIP",
      "name": "STAGIAIRE CHARGE(E) DE RESSOURCES HUMAINES - H/F",
      "latitude": 48.8708913,
      "longitude": 2.3358917
    },
    {
      "profession_id": 10,
      "contract_type": "INTERNSHIP",
      "name": "Customer Happiness Manager",
      "latitude": 48.8685703,
      "longitude": 2.3781982
    },
    {
      "profession_id": 28,
      "contract_type": "FULL_TIME",
      "name": "COIFFEUR / MAQUILLEUR (H/F)",
      "latitude": 48.9138833,
      "longitude": 2.3576766
    },
    {
      "profession_id": 3,
      "contract_type": "APPRENTICESHIP",
      "name": "Web Content Editor",
      "latitude": 48.8331806,
      "longitude": 2.2691537
    },
    {
      "profession_id": 7,
      "contract_type": "TEMPORARY",
      "name": "Assistant(e) chef de projet",
      "latitude": 45.4210585,
      "longitude": 4.3690571
    },
    {
      "profession_id": 3,
      "contract_type": "APPRENTICESHIP",
      "name": "Alternant Marque et Publicité France et International H/F",
      "latitude": 48.893217,
      "longitude": 2.287864
    },
    {
      "profession_id": 9,
      "contract_type": "TEMPORARY",
      "name": "Sales and Distribution Apprentice",
      "latitude": -6.1938908,
      "longitude": 106.8231642
    },
    {
      "profession_id": 14,
      "contract_type": "INTERNSHIP",
      "name": "Chief Geek Officer [stage]",
      "latitude": 48.8505093,
      "longitude": 2.3694831
    },
    {
      "profession_id": 13,
      "contract_type": "INTERNSHIP",
      "name": "(STAGE) Tech",
      "latitude": 48.8486668,
      "longitude": 2.3205816
    },
    {
      "profession_id": 23,
      "contract_type": "INTERNSHIP",
      "name": "Stagiaire Qualité et Contrôle CEE (H/F)",
      "latitude": 48.8760873,
      "longitude": 2.3331423
    },
    {
      "profession_id": 2,
      "contract_type": "INTERNSHIP",
      "name": "Business developer",
      "latitude": 48.8548521,
      "longitude": 2.4036505
    },
    {
      "profession_id": 10,
      "contract_type": "FULL_TIME",
      "name": "Program Manager - Intrapreneurship",
      "latitude": 48.8734617,
      "longitude": 2.3533751
    },
    {
      "profession_id": 8,
      "contract_type": "INTERNSHIP",
      "name": "Stagiaire Analyste Opérations (Risque / Fraude)",
      "latitude": 48.8720328,
      "longitude": 2.3094477
    },
    {
      "profession_id": 1,
      "contract_type": "APPRENTICESHIP",
      "name": "Alternant Chargé d’Analyse et Reporting H/F",
      "latitude": 48.893217,
      "longitude": 2.287864
    },
    {
      "profession_id": 23,
      "contract_type": "FULL_TIME",
      "name": "Country Manager West Africa",
      "latitude": 43.5438241,
      "longitude": 1.5116558
    },
    {
      "profession_id": 10,
      "contract_type": "INTERNSHIP",
      "name": "Customer Services Agent - Spain H/F",
      "latitude": 48.8630635,
      "longitude": 2.3540795
    },
    {
      "profession_id": 28,
      "contract_type": "FULL_TIME",
      "name": "Graphiste /  DA junior / boite à idées de l'année",
      "latitude": 48.8964425,
      "longitude": 2.2981273
    },
    {
      "profession_id": 13,
      "contract_type": "FULL_TIME",
      "name": "(CDI) Dev backend",
      "latitude": 48.8486668,
      "longitude": 2.3205816
    },
    {
      "profession_id": 16,
      "contract_type": "INTERNSHIP",
      "name": "Développeur web",
      "latitude": 40.4374439,
      "longitude": -3.6695265
    },
    {
      "profession_id": 12,
      "contract_type": "FULL_TIME",
      "name": "Product Manager - CDI",
      "latitude": 48.8708935,
      "longitude": 2.3446205
    },
    {
      "profession_id": 15,
      "contract_type": "FULL_TIME",
      "name": "Développeur(se) iOS iPhone / iPad",
      "latitude": 48.8416147,
      "longitude": 2.2848739
    },
    {
      "profession_id": 5,
      "contract_type": "FULL_TIME",
      "name": "Actuaires et Chargés d'Etudes Statistiques H/F",
      "latitude": 48.8732628,
      "longitude": 2.3051568
    },
    {
      "profession_id": 2,
      "contract_type": "FULL_TIME",
      "name": "Business Developer (Paris)",
      "latitude": 48.879197,
      "longitude": 2.3214745
    },
    {
      "profession_id": 28,
      "contract_type": "INTERNSHIP",
      "name": "Graphiste - STAGE",
      "latitude": 48.8964425,
      "longitude": 2.2981273
    },
    {
      "profession_id": 5,
      "contract_type": "FULL_TIME",
      "name": "Risques, Contrôle Interne et Conformité H/F",
      "latitude": 48.8732628,
      "longitude": 2.3051568
    },
    {
      "profession_id": 2,
      "contract_type": "FULL_TIME",
      "name": "Business Developer Grands Comptes Senior",
      "latitude": 48.8741546,
      "longitude": 2.309093
    },
    {
      "profession_id": 19,
      "contract_type": "FULL_TIME",
      "name": "Lead Data Analyst (H/F)",
      "latitude": 48.8725652,
      "longitude": 2.3272068
    },
    {
      "profession_id": 41,
      "contract_type": "FULL_TIME",
      "name": "Gestion de projet/MOA en Finance, Comptabilité H/F",
      "latitude": 48.8732628,
      "longitude": 2.3051568
    },
    {
      "profession_id": 13,
      "contract_type": "FULL_TIME",
      "name": "Python / Django Senior Developer (H/F) - CDI",
      "latitude": 48.8725652,
      "longitude": 2.3272068
    },
    {
      "profession_id": 1,
      "contract_type": "FULL_TIME",
      "name": "Comptabilité, Finance, Gestion H/F",
      "latitude": 48.8732628,
      "longitude": 2.3051568
    },
    {
      "profession_id": 2,
      "contract_type": "INTERNSHIP",
      "name": "(STAGE) Account Manager",
      "latitude": 48.6928606,
      "longitude": 6.1816263
    },
    {
      "profession_id": 10,
      "contract_type": "FULL_TIME",
      "name": "Service Client Finlande & Finland Customer Happiness",
      "latitude": 48.8740718,
      "longitude": 2.3456194
    },
    {
      "profession_id": 4,
      "contract_type": "FULL_TIME",
      "name": "Social média/Brand manager",
      "latitude": 48.6928606,
      "longitude": 6.1816263
    },
    {
      "profession_id": 2,
      "contract_type": "INTERNSHIP",
      "name": "Comercial BtoB España",
      "latitude": 41.3902139,
      "longitude": 2.1765758
    },
    {
      "profession_id": 14,
      "contract_type": "FULL_TIME",
      "name": "Développeur Front-end JavaScript",
      "latitude": 48.8741546,
      "longitude": 2.309093
    },
    {
      "profession_id": 4,
      "contract_type": "INTERNSHIP",
      "name": "Stage en Communication / Rédaction web – HAST.FR",
      "latitude": 48.8673309,
      "longitude": 2.3453743
    },
    {
      "profession_id": 7,
      "contract_type": "INTERNSHIP",
      "name": "Web Marketing & Communication Digitale",
      "latitude": 48.8741546,
      "longitude": 2.309093
    },
    {
      "profession_id": "",
      "contract_type": "FULL_TIME",
      "name": "Prêt(e) pour un parcours entrepreneur  ?",
      "latitude": "",
      "longitude": ""
    },
    {
      "profession_id": "",
      "contract_type": "TEMPORARY",
      "name": "Aide soignante ou AMP (H/F) CDD 1 mois Temps Complet",
      "latitude": 46.227638,
      "longitude": 2.213749
    },
    {
      "profession_id": 4,
      "contract_type": "INTERNSHIP",
      "name": "Chargé (e) du Succès Client - Stage",
      "latitude": 48.8641096,
      "longitude": 2.3496453
    },
    {
      "profession_id": 10,
      "contract_type": "TEMPORARY",
      "name": "Customer Services Agent - Germany H/F",
      "latitude": 48.8630635,
      "longitude": 2.3540795
    },
    {
      "profession_id": 37,
      "contract_type": "FULL_TIME",
      "name": "Directeur artistique Contenus",
      "latitude": 48.8652225,
      "longitude": 2.3492448
    },
    {
      "profession_id": 3,
      "contract_type": "APPRENTICESHIP",
      "name": "Assistant(e) Product Marketing Manager - Apprentissage",
      "latitude": 48.8331806,
      "longitude": 2.2691537
    },
    {
      "profession_id": 10,
      "contract_type": "INTERNSHIP",
      "name": "Assistant Qualité/Modérateur Relation Clients (H/F)",
      "latitude": 48.874488,
      "longitude": 2.2908669
    },
    {
      "profession_id": 8,
      "contract_type": "FULL_TIME",
      "name": "Coordinateur logistique (H/F)",
      "latitude": 48.8832455,
      "longitude": 2.268409
    },
    {
      "profession_id": 11,
      "contract_type": "FULL_TIME",
      "name": "Responsable UX",
      "latitude": 48.8683075,
      "longitude": 2.3520897
    },
    {
      "profession_id": 12,
      "contract_type": "INTERNSHIP",
      "name": "Chef de projet - Consultant Data Junior",
      "latitude": 48.8741546,
      "longitude": 2.309093
    },
    {
      "profession_id": 24,
      "contract_type": "FULL_TIME",
      "name": "CDI : Responsable Administrative et Financière",
      "latitude": 48.8682471,
      "longitude": 2.3462831
    },
    {
      "profession_id": 2,
      "contract_type": "FULL_TIME",
      "name": "Directeur de clientèle New Biz H/F",
      "latitude": 48.8728253,
      "longitude": 2.3580059
    },
    {
      "profession_id": 10,
      "contract_type": "FULL_TIME",
      "name": "Account Manager/ Customer Success",
      "latitude": 48.8709753,
      "longitude": 2.3353917
    },
    {
      "profession_id": 10,
      "contract_type": "TEMPORARY",
      "name": "Customer support agent",
      "latitude": 48.8804635,
      "longitude": 2.2873042
    },
    {
      "profession_id": 10,
      "contract_type": "FULL_TIME",
      "name": "Client Success Manager",
      "latitude": 48.8741546,
      "longitude": 2.309093
    },
    {
      "profession_id": 12,
      "contract_type": "FULL_TIME",
      "name": "Product Owner",
      "latitude": 43.6795887,
      "longitude": 7.2039156
    },
    {
      "profession_id": 2,
      "contract_type": "INTERNSHIP",
      "name": "Stage Marketing B2B - H/F",
      "latitude": 48.9007362,
      "longitude": 2.2844613
    },
    {
      "profession_id": 2,
      "contract_type": "FULL_TIME",
      "name": "Business Developer H/F - Annecy",
      "latitude": 45.9146121,
      "longitude": 6.1338113
    },
    {
      "profession_id": 19,
      "contract_type": "FULL_TIME",
      "name": "Vice Président Engineering",
      "latitude": 48.8720025,
      "longitude": 2.3339487
    },
    {
      "profession_id": 8,
      "contract_type": "FULL_TIME",
      "name": "Concierge Privé",
      "latitude": 48.8779262,
      "longitude": 2.2844294
    },
    {
      "profession_id": 14,
      "contract_type": "FULL_TIME",
      "name": "FRONT-END DEVELOPER",
      "latitude": 48.8859879,
      "longitude": 2.2500769
    },
    {
      "profession_id": 16,
      "contract_type": "FULL_TIME",
      "name": "Full-Stack Developer (#javascript)",
      "latitude": 48.8659285,
      "longitude": 2.3767178
    },
    {
      "profession_id": 20,
      "contract_type": "INTERNSHIP",
      "name": "International Affiliate Program Manager (H/F)",
      "latitude": 48.874488,
      "longitude": 2.2908669
    },
    {
      "profession_id": 8,
      "contract_type": "INTERNSHIP",
      "name": "Operations Manager #Stage",
      "latitude": 48.8654569,
      "longitude": 2.3820249
    },
    {
      "profession_id": 2,
      "contract_type": "FULL_TIME",
      "name": "Business Developer - Metz",
      "latitude": 49.1186611,
      "longitude": 6.1726596
    },
    {
      "profession_id": 6,
      "contract_type": "FULL_TIME",
      "name": "Responsable Affaires Publiques FlixBus France - H/F",
      "latitude": 48.9007362,
      "longitude": 2.2844613
    },
    {
      "profession_id": 10,
      "contract_type": "TEMPORARY",
      "name": "Customer Services Agent - France H/F",
      "latitude": 48.8630635,
      "longitude": 2.3540795
    },
    {
      "profession_id": 2,
      "contract_type": "FULL_TIME",
      "name": "Business Developer H/F - Lille",
      "latitude": 50.6310341,
      "longitude": 3.0605707
    },
    {
      "profession_id": 8,
      "contract_type": "INTERNSHIP",
      "name": "Stagiaire Efficacité Energétique Toulouse (H/F)",
      "latitude": 43.6436073,
      "longitude": 1.4525875
    },
    {
      "profession_id": 2,
      "contract_type": "FULL_TIME",
      "name": "Director of Network Deployment",
      "latitude": 32.7766642,
      "longitude": -96.7969879
    },
    {
      "profession_id": 7,
      "contract_type": "APPRENTICESHIP",
      "name": "ALTERNANCE CHEF DE PROJET MARKETING H/F",
      "latitude": 48.9138833,
      "longitude": 2.3576766
    },
    {
      "profession_id": 24,
      "contract_type": "APPRENTICESHIP",
      "name": "Stage ou alternance Comptable Junior H/F",
      "latitude": 48.8723932,
      "longitude": 2.3298969
    },
    {
      "profession_id": 2,
      "contract_type": "FULL_TIME",
      "name": "Business Developer H/F - Nice",
      "latitude": 43.6960355,
      "longitude": 7.2655896
    },
    {
      "profession_id": 2,
      "contract_type": "FULL_TIME",
      "name": "Pre-Sales Support - LATAM",
      "latitude": 19.4326077,
      "longitude": -99.133208
    },
    {
      "profession_id": 39,
      "contract_type": "FULL_TIME",
      "name": "Consultant Cybersecurity & Digital Trust (H/F)",
      "latitude": 48.8898133,
      "longitude": 2.2412433
    },
    {
      "profession_id": "",
      "contract_type": "INTERNSHIP",
      "name": "Architecte HMO",
      "latitude": 48.8320892,
      "longitude": 2.3866021
    },
    {
      "profession_id": 19,
      "contract_type": "FULL_TIME",
      "name": "Chargé de Support Technique Bilingue Allemand",
      "latitude": 48.8768868,
      "longitude": 2.3091203
    },
    {
      "profession_id": 40,
      "contract_type": "FULL_TIME",
      "name": "Senior Consultant Analytics",
      "latitude": 48.8775485,
      "longitude": 2.3530506
    },
    {
      "profession_id": 19,
      "contract_type": "FULL_TIME",
      "name": "Data Analyst",
      "latitude": 48.8728253,
      "longitude": 2.3580059
    },
    {
      "profession_id": "",
      "contract_type": "INTERNSHIP",
      "name": "Architecte HMO",
      "latitude": "",
      "longitude": ""
    },
    {
      "profession_id": 8,
      "contract_type": "INTERNSHIP",
      "name": "Superstar Intern - Operations & Communication",
      "latitude": 48.8788203,
      "longitude": 2.3285832
    },
    {
      "profession_id": 16,
      "contract_type": "FULL_TIME",
      "name": "Développeur fullstack PHP Symphony",
      "latitude": 48.8902437,
      "longitude": 2.173517
    },
    {
      "profession_id": 4,
      "contract_type": "APPRENTICESHIP",
      "name": "COMMUNICATION & COMMUNITY MANAGER JUNIOR (Stage ou contrat de professionnalisation)",
      "latitude": 48.8587073,
      "longitude": 2.3873991
    },
    {
      "profession_id": 14,
      "contract_type": "FULL_TIME",
      "name": "Développeur Web Front-End confirmé",
      "latitude": 43.6163539,
      "longitude": 7.0552218
    },
    {
      "profession_id": 12,
      "contract_type": "INTERNSHIP",
      "name": "Stagiaire QA / Testeur fonctionnel",
      "latitude": 48.8741511,
      "longitude": 2.3728969
    },
    {
      "profession_id": 13,
      "contract_type": "FULL_TIME",
      "name": "Développeur Backend Symfony 3 - H/F",
      "latitude": 48.8741511,
      "longitude": 2.3728969
    },
    {
      "profession_id": 28,
      "contract_type": "INTERNSHIP",
      "name": "Graphiste Junior Print/Web",
      "latitude": 48.8553652,
      "longitude": 2.338144
    },
    {
      "profession_id": 2,
      "contract_type": "INTERNSHIP",
      "name": "Stage - Business Development",
      "latitude": 48.8441369,
      "longitude": 2.372446
    },
    {
      "profession_id": 10,
      "contract_type": "FULL_TIME",
      "name": "Chargé(e) de Clientèle",
      "latitude": 48.8902437,
      "longitude": 2.173517
    },
    {
      "profession_id": 2,
      "contract_type": "FULL_TIME",
      "name": "Account Executive",
      "latitude": 48.8666971,
      "longitude": 2.3001785
    },
    {
      "profession_id": 19,
      "contract_type": "FULL_TIME",
      "name": "Ingenieur Data  H/F",
      "latitude": 48.8728253,
      "longitude": 2.3580059
    },
    {
      "profession_id": 7,
      "contract_type": "TEMPORARY",
      "name": "Chargé de produit H/F",
      "latitude": 48.8423381,
      "longitude": 2.3196434
    },
    {
      "profession_id": 26,
      "contract_type": "FULL_TIME",
      "name": "Talent Acquisition Manager",
      "latitude": 48.8709753,
      "longitude": 2.3353917
    },
    {
      "profession_id": 8,
      "contract_type": "APPRENTICESHIP",
      "name": "Alternance Gestionnaire Monitoring Solutions H/F",
      "latitude": 48.8640493,
      "longitude": 2.3310526
    },
    {
      "profession_id": 26,
      "contract_type": "FULL_TIME",
      "name": "Recruiter / Technical Recruiter",
      "latitude": 48.875099,
      "longitude": 2.3401515
    },
    {
      "profession_id": 2,
      "contract_type": "FULL_TIME",
      "name": "Account Executive Conférences",
      "latitude": 48.8709753,
      "longitude": 2.3353917
    },
    {
      "profession_id": 5,
      "contract_type": "FULL_TIME",
      "name": "Celebrity Manager France (h/f)",
      "latitude": 48.8709753,
      "longitude": 2.3353917
    },
    {
      "profession_id": 12,
      "contract_type": "INTERNSHIP",
      "name": "STAGE CHEF DE PROJET DIGITAL",
      "latitude": 48.8744698,
      "longitude": 2.3408831
    },
    {
      "profession_id": 7,
      "contract_type": "INTERNSHIP",
      "name": "Assistant Marketing Digital (stage ou alternance)",
      "latitude": 48.8722789,
      "longitude": 2.3384367
    },
    {
      "profession_id": 8,
      "contract_type": "APPRENTICESHIP",
      "name": "Alternance GMO Gestionnaire opération - Référentiels Instruments H/F",
      "latitude": 48.8640493,
      "longitude": 2.3310526
    },
    {
      "profession_id": 7,
      "contract_type": "FULL_TIME",
      "name": "Responsable E-Commerce / CMO",
      "latitude": 48.8528847,
      "longitude": 2.3643089
    },
    {
      "profession_id": 8,
      "contract_type": "FULL_TIME",
      "name": "Responsable Opérationnel Junior",
      "latitude": 48.8885607,
      "longitude": 2.3755957
    },
    {
      "profession_id": 19,
      "contract_type": "FULL_TIME",
      "name": "Dataminer junior avec expérience",
      "latitude": 48.8271864,
      "longitude": 2.3162818
    },
    {
      "profession_id": 16,
      "contract_type": "FULL_TIME",
      "name": "Développeur Java Big Data Junior",
      "latitude": 48.8271864,
      "longitude": 2.3162818
    },
    {
      "profession_id": 17,
      "contract_type": "FULL_TIME",
      "name": "DevOps SAAS/Intégration (H/F)",
      "latitude": 50.633234,
      "longitude": 3.023574
    },
    {
      "profession_id": 2,
      "contract_type": "FULL_TIME",
      "name": "CDI : Business developer - Responsable de compte",
      "latitude": 48.8682471,
      "longitude": 2.3462831
    },
    {
      "profession_id": 24,
      "contract_type": "FULL_TIME",
      "name": "Collaborateur confirmé Audit / Comptabilité – @PwC Marseille – CDI – H/F",
      "latitude": 43.3036424,
      "longitude": 5.379305
    },
    {
      "profession_id": 1,
      "contract_type": "FULL_TIME",
      "name": "Contrôleur Coordinateur",
      "latitude": 48.8941822,
      "longitude": 2.2071125
    },
    {
      "profession_id": 3,
      "contract_type": "INTERNSHIP",
      "name": "Stage rédacteur/community manager (H/F)",
      "latitude": 48.8684867,
      "longitude": 2.3459231
    },
    {
      "profession_id": 14,
      "contract_type": "FULL_TIME",
      "name": "Développeur Front End - JS // React.js",
      "latitude": 48.8716208,
      "longitude": 2.3477646
    },
    {
      "profession_id": 11,
      "contract_type": "FULL_TIME",
      "name": "UX/UI Designer (H/F)",
      "latitude": 47.2116368,
      "longitude": -1.5759037
    },
    {
      "profession_id": 2,
      "contract_type": "FREELANCE",
      "name": "Ambassadeurs - Nord EST (Nancy et Amiens)",
      "latitude": 48.8614395,
      "longitude": 2.3781162
    },
    {
      "profession_id": 11,
      "contract_type": "FULL_TIME",
      "name": "CAD Manager bilingue japonais (dessinateur bâtiment confirmé)",
      "latitude": 48.671609,
      "longitude": 2.130626
    },
    {
      "profession_id": 7,
      "contract_type": "FULL_TIME",
      "name": "Digital Marketing Manager, International",
      "latitude": 48.856614,
      "longitude": 2.3522219
    },
    {
      "profession_id": 13,
      "contract_type": "FULL_TIME",
      "name": "Software Craftsman (H/F, Maroc)",
      "latitude": 33.9952405,
      "longitude": -6.8489701
    },
    {
      "profession_id": 5,
      "contract_type": "FULL_TIME",
      "name": "Business Manager Secteur Loisirs (H/F)",
      "latitude": 48.8686208,
      "longitude": 2.3336298
    },
    {
      "profession_id": 1,
      "contract_type": "APPRENTICESHIP",
      "name": "Alternant Chef de Projet Formation H/F",
      "latitude": 48.8640493,
      "longitude": 2.3310526
    },
    {
      "profession_id": 3,
      "contract_type": "INTERNSHIP",
      "name": "Responsable Communication B2C - Community Manager",
      "latitude": 48.8708935,
      "longitude": 2.3446205
    },
    {
      "profession_id": 3,
      "contract_type": "APPRENTICESHIP",
      "name": "Alternance Accompagnement au Changement - H/F",
      "latitude": 48.8640493,
      "longitude": 2.3310526
    },
    {
      "profession_id": 12,
      "contract_type": "FULL_TIME",
      "name": "Chef de projet B2B H/F",
      "latitude": 48.8331806,
      "longitude": 2.2691537
    },
    {
      "profession_id": 8,
      "contract_type": "FULL_TIME",
      "name": "Administrateur Référentiel Financier",
      "latitude": 48.8941822,
      "longitude": 2.2071125
    },
    {
      "profession_id": 12,
      "contract_type": "PART_TIME",
      "name": "Chef de Projet Digital Marketing H/F",
      "latitude": 48.8730907,
      "longitude": 2.3176989
    },
    {
      "profession_id": 2,
      "contract_type": "FULL_TIME",
      "name": "Commercial Grands Comptes Emploi - Bordeaux (H/F)",
      "latitude": 48.8728253,
      "longitude": 2.3580059
    },
    {
      "profession_id": 13,
      "contract_type": "FULL_TIME",
      "name": "Ingénieur Etudes et Développement .Net H/F",
      "latitude": 47.2239586,
      "longitude": -1.5408058
    },
    {
      "profession_id": 12,
      "contract_type": "INTERNSHIP",
      "name": "Assistant(e) chef de projet webmarketing",
      "latitude": 48.871177,
      "longitude": 2.3463629
    },
    {
      "profession_id": 2,
      "contract_type": "INTERNSHIP",
      "name": "Stage - Business Developpement",
      "latitude": 48.8704815,
      "longitude": 2.3404113
    },
    {
      "profession_id": 16,
      "contract_type": "FULL_TIME",
      "name": "Product & Software Engineer",
      "latitude": 48.8441369,
      "longitude": 2.372446
    },
    {
      "profession_id": 2,
      "contract_type": "INTERNSHIP",
      "name": "STAGE : Startup Manager (Programme Reboot)",
      "latitude": 48.8682471,
      "longitude": 2.3462831
    },
    {
      "profession_id": 7,
      "contract_type": "INTERNSHIP",
      "name": "Webmarketing. / Community manager",
      "latitude": 49.3154128,
      "longitude": 0.5442384
    },
    {
      "profession_id": 13,
      "contract_type": "FULL_TIME",
      "name": "Ingénieur d'études décisionnel H/F",
      "latitude": 47.218371,
      "longitude": -1.553621
    },
    {
      "profession_id": 16,
      "contract_type": "FULL_TIME",
      "name": "Full-Stack Software Engineer",
      "latitude": 47.2229033,
      "longitude": -1.5620459
    },
    {
      "profession_id": 2,
      "contract_type": "INTERNSHIP",
      "name": "ASSISTANT(E) COMMERCIAL PÔLE BEAUTE H/F",
      "latitude": 48.9315523,
      "longitude": 2.3563278
    },
    {
      "profession_id": 2,
      "contract_type": "INTERNSHIP",
      "name": "Stagiaire Chef de projets Marketing – RE Investment Management",
      "latitude": 48.8245306,
      "longitude": 2.2743419
    },
    {
      "profession_id": 5,
      "contract_type": "FULL_TIME",
      "name": "CDI : Startup Program Manager",
      "latitude": 48.8682471,
      "longitude": 2.3462831
    },
    {
      "profession_id": "",
      "contract_type": "FULL_TIME",
      "name": "Aide soignant(e) ou AMP  de jour (H/F)",
      "latitude": 46.862504,
      "longitude": 4.1914915
    },
    {
      "profession_id": 2,
      "contract_type": "FULL_TIME",
      "name": "Client Executive Hong Kong",
      "latitude": 22.2679685,
      "longitude": 114.242536
    },
    {
      "profession_id": 4,
      "contract_type": "INTERNSHIP",
      "name": "Chef de projet Vidéo",
      "latitude": 48.854709,
      "longitude": 2.3761064
    },
    {
      "profession_id": 7,
      "contract_type": "INTERNSHIP",
      "name": "Customer Success Assistant",
      "latitude": 48.8752791,
      "longitude": 2.3226727
    },
    {
      "profession_id": 16,
      "contract_type": "FULL_TIME",
      "name": "Super Lead Développeur R&D .NET - Full Stack",
      "latitude": 43.27657,
      "longitude": 5.3909615
    },
    {
      "profession_id": 10,
      "contract_type": "FULL_TIME",
      "name": "Chargé(e) de clientèle",
      "latitude": 48.8304707,
      "longitude": 2.2373493
    },
    {
      "profession_id": 26,
      "contract_type": "INTERNSHIP",
      "name": "Chargé de recrutement, relations écoles & marque employeur (H/F)",
      "latitude": 48.8898133,
      "longitude": 2.2412433
    },
    {
      "profession_id": 24,
      "contract_type": "INTERNSHIP",
      "name": "Stagiaire Compta/Contrôle de Gestion",
      "latitude": 48.8585351,
      "longitude": 2.444984
    },
    {
      "profession_id": 21,
      "contract_type": "INTERNSHIP",
      "name": "[STAGE] R&D - JUS PRESSÉS À FROID - SEPTEMBRE 2017",
      "latitude": 48.8511949,
      "longitude": 2.3846036
    },
    {
      "profession_id": 19,
      "contract_type": "FULL_TIME",
      "name": "Data Scientist",
      "latitude": 48.875723,
      "longitude": 2.3321937
    },
    {
      "profession_id": 13,
      "contract_type": "FULL_TIME",
      "name": "Back-End Software Engineer",
      "latitude": 48.875723,
      "longitude": 2.3321937
    },
    {
      "profession_id": 22,
      "contract_type": "FULL_TIME",
      "name": "Directeur Cybersécurité",
      "latitude": 48.8745035,
      "longitude": 2.3528765
    },
    {
      "profession_id": 7,
      "contract_type": "INTERNSHIP",
      "name": "H/F STAGE DÉVELOPPEMENT STRATÉGIQUE",
      "latitude": 48.8715176,
      "longitude": 2.3107874
    },
    {
      "profession_id": 2,
      "contract_type": "FULL_TIME",
      "name": "Yoobic Commercial Graduate Scheme: Sales (German Speaking)",
      "latitude": 51.531495,
      "longitude": -0.2375917
    },
    {
      "profession_id": 3,
      "contract_type": "INTERNSHIP",
      "name": "Communication and Partnerships Assistant (Internship)",
      "latitude": 48.8780918,
      "longitude": 2.3285989
    },
    {
      "profession_id": 16,
      "contract_type": "FULL_TIME",
      "name": "Chef de projet Projet Développement : Java / Angular.js (H/F)",
      "latitude": 50.633234,
      "longitude": 3.023574
    },
    {
      "profession_id": 16,
      "contract_type": "INTERNSHIP",
      "name": "Front-End Intern",
      "latitude": 48.8528847,
      "longitude": 2.3643089
    },
    {
      "profession_id": 10,
      "contract_type": "FULL_TIME",
      "name": "E-Commerce Customer Support Lead",
      "latitude": 48.8752377,
      "longitude": 2.333812
    },
    {
      "profession_id": 28,
      "contract_type": "INTERNSHIP",
      "name": "Graphiste - Webdesigner",
      "latitude": 48.8665766,
      "longitude": 2.3345591
    },
    {
      "profession_id": 2,
      "contract_type": "INTERNSHIP",
      "name": "Stage business development / commercial",
      "latitude": 48.8777718,
      "longitude": 2.3337369
    },
    {
      "profession_id": 26,
      "contract_type": "FULL_TIME",
      "name": "Responsable du recrutement",
      "latitude": 48.8433322,
      "longitude": 2.2807787
    },
    {
      "profession_id": 2,
      "contract_type": "INTERNSHIP",
      "name": "STAGE : Business developer - Administration des ventes",
      "latitude": 48.8682471,
      "longitude": 2.3462831
    },
    {
      "profession_id": 12,
      "contract_type": "FULL_TIME",
      "name": "Mobile Strategy Product Owner",
      "latitude": 48.8939624,
      "longitude": 2.3540829
    },
    {
      "profession_id": 2,
      "contract_type": "FULL_TIME",
      "name": "Chargé du développement des ventes (H/F) Offre en CDI – A commencer dès que possible",
      "latitude": 50.633234,
      "longitude": 3.023574
    },
    {
      "profession_id": 19,
      "contract_type": "FULL_TIME",
      "name": "Data Scientist avec expérience",
      "latitude": 48.8271864,
      "longitude": 2.3162818
    },
    {
      "profession_id": 8,
      "contract_type": "FULL_TIME",
      "name": "Chargé(e) de Contenu Allemand",
      "latitude": 43.5134426,
      "longitude": 5.4286464
    },
    {
      "profession_id": 13,
      "contract_type": "FULL_TIME",
      "name": "Développeur back end H/F",
      "latitude": 48.8913255,
      "longitude": 2.3506168
    },
    {
      "profession_id": 12,
      "contract_type": "FULL_TIME",
      "name": "Product Owner (H/F)",
      "latitude": 48.8753693,
      "longitude": 2.3372256
    },
    {
      "profession_id": 14,
      "contract_type": "FULL_TIME",
      "name": "Intégrateur Web",
      "latitude": 48.8756084,
      "longitude": 2.3217827
    },
    {
      "profession_id": 16,
      "contract_type": "FULL_TIME",
      "name": "Développeur Fullstack H/F",
      "latitude": 48.8913255,
      "longitude": 2.3506168
    },
    {
      "profession_id": 2,
      "contract_type": "FULL_TIME",
      "name": "Chargé de compte en cession de droits / co-édition",
      "latitude": 48.864306,
      "longitude": 2.3898209
    },
    {
      "profession_id": 19,
      "contract_type": "FULL_TIME",
      "name": "Data Scientist datakili®",
      "latitude": 48.8271864,
      "longitude": 2.3162818
    },
    {
      "profession_id": 10,
      "contract_type": "FULL_TIME",
      "name": "Key Account Manager",
      "latitude": 48.8663878,
      "longitude": 2.3536764
    },
    {
      "profession_id": 13,
      "contract_type": "FULL_TIME",
      "name": "Nouvelle offre - LEAD - Ruby On rails",
      "latitude": 48.8368196,
      "longitude": 2.2829607
    },
    {
      "profession_id": 8,
      "contract_type": "INTERNSHIP",
      "name": "Operations Manager - French speaking",
      "latitude": 48.8651459,
      "longitude": 2.3501932
    },
    {
      "profession_id": 7,
      "contract_type": "FULL_TIME",
      "name": "Chef de projet Marketing",
      "latitude": 48.8271864,
      "longitude": 2.3162818
    },
    {
      "profession_id": 8,
      "contract_type": "INTERNSHIP",
      "name": "Operations Manager - English Speaking",
      "latitude": 48.8651459,
      "longitude": 2.3501932
    },
    {
      "profession_id": 19,
      "contract_type": "FULL_TIME",
      "name": "Datamanager",
      "latitude": 48.8271864,
      "longitude": 2.3162818
    },
    {
      "profession_id": 19,
      "contract_type": "FULL_TIME",
      "name": "Dataminer senior",
      "latitude": 48.8271864,
      "longitude": 2.3162818
    },
    {
      "profession_id": 12,
      "contract_type": "FULL_TIME",
      "name": "Chef de Projet Déploiement H/F",
      "latitude": 48.8726961,
      "longitude": 2.3482887
    },
    {
      "profession_id": 16,
      "contract_type": "FULL_TIME",
      "name": "Lead developer",
      "latitude": 48.8271864,
      "longitude": 2.3162818
    },
    {
      "profession_id": 2,
      "contract_type": "FULL_TIME",
      "name": "Ingénieur Avant-Vente (H/F)",
      "latitude": 47.2116368,
      "longitude": -1.5759037
    },
    {
      "profession_id": 10,
      "contract_type": "FULL_TIME",
      "name": "Service Client Pays-Bas & Netherlands Customer Happiness",
      "latitude": 48.8740718,
      "longitude": 2.3456194
    },
    {
      "profession_id": 8,
      "contract_type": "FULL_TIME",
      "name": "Analytics Manager, Global Supply",
      "latitude": 1.352083,
      "longitude": 103.819836
    },
    {
      "profession_id": 17,
      "contract_type": "FULL_TIME",
      "name": "Information Technology Manager",
      "latitude": 7.963421,
      "longitude": 98.283927
    },
    {
      "profession_id": 30,
      "contract_type": "FULL_TIME",
      "name": "Animateur Retail - Faguo",
      "latitude": 48.8906175,
      "longitude": 2.3503032
    },
    {
      "profession_id": 38,
      "contract_type": "FULL_TIME",
      "name": "Consultant Energy & Utilities (H/F)",
      "latitude": 48.8898133,
      "longitude": 2.2412433
    },
    {
      "profession_id": 2,
      "contract_type": "INTERNSHIP",
      "name": "Stage chef de projet partenariats",
      "latitude": 48.8981631,
      "longitude": 2.3780941
    },
    {
      "profession_id": 2,
      "contract_type": "INTERNSHIP",
      "name": "Sales/Account Manager #stage",
      "latitude": 48.8654569,
      "longitude": 2.3820249
    },
    {
      "profession_id": 16,
      "contract_type": "FULL_TIME",
      "name": "Développeur Full Stack (H/F)",
      "latitude": 48.8711754,
      "longitude": 2.3933993
    },
    {
      "profession_id": 2,
      "contract_type": "FULL_TIME",
      "name": "Inside Sales (H/F)",
      "latitude": 48.8711754,
      "longitude": 2.3933993
    },
    {
      "profession_id": 5,
      "contract_type": "FULL_TIME",
      "name": "Data Scientist Confirmé(e) – Fouille de données et Machine Learning –",
      "latitude": 48.8854993,
      "longitude": 2.2653713
    },
    {
      "profession_id": 17,
      "contract_type": "FULL_TIME",
      "name": "Technicien Systèmes",
      "latitude": 49.8915312,
      "longitude": 2.3104259
    },
    {
      "profession_id": 7,
      "contract_type": "FULL_TIME",
      "name": "Marketing Manager",
      "latitude": 48.6928606,
      "longitude": 6.1816263
    },
    {
      "profession_id": 28,
      "contract_type": "INTERNSHIP",
      "name": "Graphiste Web",
      "latitude": 48.8706744,
      "longitude": 2.360306
    },
    {
      "profession_id": 11,
      "contract_type": "FULL_TIME",
      "name": "UX Designer / Researcher",
      "latitude": 48.8414416,
      "longitude": 2.2844455
    },
    {
      "profession_id": 10,
      "contract_type": "INTERNSHIP",
      "name": "[STAGE] CUSTOMER EXPERIENCE & CONTENT MARKETING - JANVIER 2018",
      "latitude": 48.8511949,
      "longitude": 2.3846036
    },
    {
      "profession_id": 1,
      "contract_type": "APPRENTICESHIP",
      "name": "ALTERNANCE- Actuaire R&D Modélisation- H/F",
      "latitude": 48.8941822,
      "longitude": 2.2071125
    },
    {
      "profession_id": 16,
      "contract_type": "FULL_TIME",
      "name": "Consultant fonctionnel confirmé H/F",
      "latitude": 48.8624671,
      "longitude": 2.2249402
    },
    {
      "profession_id": 27,
      "contract_type": "FREELANCE",
      "name": "Modèle homme 25-40 ans",
      "latitude": 48.8678639,
      "longitude": 2.3612112
    },
    {
      "profession_id": 10,
      "contract_type": "FULL_TIME",
      "name": "Analyse, Conception, Développement H/F",
      "latitude": 48.8624671,
      "longitude": 2.2249402
    },
    {
      "profession_id": 7,
      "contract_type": "INTERNSHIP",
      "name": "[STAGE] BUSINESS DEVELOPER - JANVIER 2018",
      "latitude": 48.8511949,
      "longitude": 2.3846036
    },
    {
      "profession_id": 12,
      "contract_type": "APPRENTICESHIP",
      "name": "ASSISTANT PROJECT MANAGER OFFICER ET CONDUITE DU CHANGEMENT H/F",
      "latitude": 48.8179311,
      "longitude": 2.3158662
    },
    {
      "profession_id": 2,
      "contract_type": "APPRENTICESHIP",
      "name": "ALTERNANCE- Appui responsable de portefeuille projets- H/F",
      "latitude": 48.8941822,
      "longitude": 2.2071125
    },
    {
      "profession_id": 17,
      "contract_type": "FULL_TIME",
      "name": "QA Engineer",
      "latitude": 48.8939624,
      "longitude": 2.3540829
    },
    {
      "profession_id": 14,
      "contract_type": "FULL_TIME",
      "name": "Développeur Front-End (H/F)",
      "latitude": 47.2116368,
      "longitude": -1.5759037
    },
    {
      "profession_id": 8,
      "contract_type": "FULL_TIME",
      "name": "Analyste MOA",
      "latitude": 48.8941822,
      "longitude": 2.2071125
    },
    {
      "profession_id": 11,
      "contract_type": "FULL_TIME",
      "name": "Designer Junior",
      "latitude": 48.8734617,
      "longitude": 2.3533751
    },
    {
      "profession_id": 12,
      "contract_type": "FULL_TIME",
      "name": "Product & Program Manager",
      "latitude": 48.8734617,
      "longitude": 2.3533751
    },
    {
      "profession_id": 21,
      "contract_type": "INTERNSHIP",
      "name": "End to end tester",
      "latitude": 48.8804635,
      "longitude": 2.2873042
    },
    {
      "profession_id": 26,
      "contract_type": "FULL_TIME",
      "name": "Formateur itinérant",
      "latitude": 48.8368196,
      "longitude": 2.2829607
    },
    {
      "profession_id": 1,
      "contract_type": "INTERNSHIP",
      "name": "Stage Audit et Contrôle Interne H/F",
      "latitude": 48.8723932,
      "longitude": 2.3298969
    },
    {
      "profession_id": 16,
      "contract_type": "FULL_TIME",
      "name": "Développeur team Support - Level 3 (H/F)",
      "latitude": 47.2116368,
      "longitude": -1.5759037
    },
    {
      "profession_id": 26,
      "contract_type": "INTERNSHIP",
      "name": "Stage Assistant RH  - Paris (H/F)",
      "latitude": 48.8683316,
      "longitude": 2.3554578
    },
    {
      "profession_id": 7,
      "contract_type": "FULL_TIME",
      "name": "Growth Hacker & Marketing Specialist",
      "latitude": 48.8756084,
      "longitude": 2.3217827
    },
    {
      "profession_id": 1,
      "contract_type": "APPRENTICESHIP",
      "name": "ALTERNANCE- Actuaire junior- H/F",
      "latitude": 48.8941822,
      "longitude": 2.2071125
    },
    {
      "profession_id": 7,
      "contract_type": "FULL_TIME",
      "name": "Chef de projet marketing relationnel et commercial (H/F)",
      "latitude": 48.8913255,
      "longitude": 2.3506168
    },
    {
      "profession_id": 13,
      "contract_type": "FULL_TIME",
      "name": "Expert Sécurité IT Signature Electronique H/F",
      "latitude": 48.8640493,
      "longitude": 2.3310526
    },
    {
      "profession_id": 2,
      "contract_type": "FULL_TIME",
      "name": "Sales Development Representative - Paris (H/F)",
      "latitude": 48.8683316,
      "longitude": 2.3554578
    },
    {
      "profession_id": 25,
      "contract_type": "APPRENTICESHIP",
      "name": "ALTERNANCE - Assistant Chef de Produit Prévoyance- H/F",
      "latitude": 48.8941822,
      "longitude": 2.2071125
    },
    {
      "profession_id": 2,
      "contract_type": "FULL_TIME",
      "name": "Business Developer - Spain H/F",
      "latitude": 48.8630635,
      "longitude": 2.3540795
    },
    {
      "profession_id": "",
      "contract_type": "FULL_TIME",
      "name": "Auxiliaire de Vie",
      "latitude": 48.8416147,
      "longitude": 2.2848739
    },
    {
      "profession_id": 2,
      "contract_type": "FULL_TIME",
      "name": "Chargé de Développement du Réseau d'Agences - H/F",
      "latitude": 48.9007362,
      "longitude": 2.2844613
    },
    {
      "profession_id": 12,
      "contract_type": "FULL_TIME",
      "name": "Chef de projet Web Senior / Directeur de Clientèle Digital",
      "latitude": 48.8753358,
      "longitude": 2.3169387
    },
    {
      "profession_id": 13,
      "contract_type": "FULL_TIME",
      "name": "Software Engineer (backend, data mining, algorithms)",
      "latitude": 48.8687761,
      "longitude": 2.3239102
    },
    {
      "profession_id": 2,
      "contract_type": "FULL_TIME",
      "name": "Sales manager \"Native Ads",
      "latitude": 48.8689769,
      "longitude": 2.352871
    },
    {
      "profession_id": 16,
      "contract_type": "FULL_TIME",
      "name": "Développeur Full Stack Expérimenté (H/F)",
      "latitude": 47.2116368,
      "longitude": -1.5759037
    },
    {
      "profession_id": 6,
      "contract_type": "TEMPORARY",
      "name": "Chargé(e) de Relations Presse - CDD ou stage",
      "latitude": 48.8740718,
      "longitude": 2.3456194
    },
    {
      "profession_id": 20,
      "contract_type": "FULL_TIME",
      "name": "Technical programmatic manager (H/F)",
      "latitude": 48.8913255,
      "longitude": 2.3506168
    },
    {
      "profession_id": 26,
      "contract_type": "FULL_TIME",
      "name": "Recruitment Officer",
      "latitude": 50.6337193,
      "longitude": 3.0663279
    },
    {
      "profession_id": 2,
      "contract_type": "FULL_TIME",
      "name": "Key Account Manager - Business Developer (F/H) - CDI, Paris",
      "latitude": 48.8368196,
      "longitude": 2.2829607
    },
    {
      "profession_id": "",
      "contract_type": "FULL_TIME",
      "name": "Chef d'équipe Aide soignant  (H/F) CDI Temps Complet",
      "latitude": 48.5733145,
      "longitude": 2.4346999
    },
    {
      "profession_id": 10,
      "contract_type": "FULL_TIME",
      "name": "Customer support agent",
      "latitude": 48.8804635,
      "longitude": 2.2873042
    },
    {
      "profession_id": 40,
      "contract_type": "FULL_TIME",
      "name": "Consultant DMP / CRM",
      "latitude": 48.8775485,
      "longitude": 2.3530506
    },
    {
      "profession_id": 6,
      "contract_type": "INTERNSHIP",
      "name": "Stage communication/contenu",
      "latitude": 48.8714761,
      "longitude": 2.3059367
    },
    {
      "profession_id": 12,
      "contract_type": "INTERNSHIP",
      "name": "Stage - Product Manager H/F",
      "latitude": 48.865906,
      "longitude": 2.3455685
    },
    {
      "profession_id": 38,
      "contract_type": "FULL_TIME",
      "name": "Consultant Finance & Performance (H/F)",
      "latitude": 48.8898133,
      "longitude": 2.2412433
    },
    {
      "profession_id": 15,
      "contract_type": "FULL_TIME",
      "name": "Nouvelle offre - LEAD - Développeur Android",
      "latitude": 48.8368196,
      "longitude": 2.2829607
    },
    {
      "profession_id": 7,
      "contract_type": "FULL_TIME",
      "name": "Responsable Marketing Digital (H/F)",
      "latitude": 48.8188827,
      "longitude": 2.1979843
    },
    {
      "profession_id": 16,
      "contract_type": "FULL_TIME",
      "name": "Développeur Fullstack Symfony / JS",
      "latitude": 48.8741511,
      "longitude": 2.3728969
    },
    {
      "profession_id": 13,
      "contract_type": "FULL_TIME",
      "name": "Ingénieur Développement .Net C# (H/F)",
      "latitude": 48.8412302,
      "longitude": 2.2196267
    },
    {
      "profession_id": 39,
      "contract_type": "FULL_TIME",
      "name": "Process Manager - Customer Care H/F",
      "latitude": 48.8630635,
      "longitude": 2.3540795
    },
    {
      "profession_id": 7,
      "contract_type": "INTERNSHIP",
      "name": "[STAGE] Chargé(e) de Marketing & Communication",
      "latitude": 48.8669469,
      "longitude": 2.2891631
    },
    {
      "profession_id": 23,
      "contract_type": "PART_TIME",
      "name": "Assistant Administratif - Paris (H/F)",
      "latitude": 48.8683316,
      "longitude": 2.3554578
    },
    {
      "profession_id": 16,
      "contract_type": "FULL_TIME",
      "name": "Développeur Full Stack Confirmé F/H",
      "latitude": 48.8722357,
      "longitude": 2.3276039
    },
    {
      "profession_id": 21,
      "contract_type": "FULL_TIME",
      "name": "(F/H) Ingénieur R&D Contrôle Commande",
      "latitude": 48.8858837,
      "longitude": 2.3123952
    },
    {
      "profession_id": 7,
      "contract_type": "APPRENTICESHIP",
      "name": "Assitant (e) chef de marché neuf",
      "latitude": 48.8913255,
      "longitude": 2.3506168
    },
    {
      "profession_id": 16,
      "contract_type": "FULL_TIME",
      "name": "Architecte Big Data H/F",
      "latitude": 48.8682471,
      "longitude": 2.3462831
    },
    {
      "profession_id": 16,
      "contract_type": "FULL_TIME",
      "name": "Développeur web full stack H/F",
      "latitude": 48.8682471,
      "longitude": 2.3462831
    },
    {
      "profession_id": 12,
      "contract_type": "FULL_TIME",
      "name": "(F/H) Responsable Affaires réglementaires",
      "latitude": 48.8858837,
      "longitude": 2.3123952
    },
    {
      "profession_id": 17,
      "contract_type": "FULL_TIME",
      "name": "DevOps H/F",
      "latitude": 48.8630635,
      "longitude": 2.3540795
    },
    {
      "profession_id": 2,
      "contract_type": "FULL_TIME",
      "name": "Directeur Conseil / Responsable New Business",
      "latitude": 48.8753358,
      "longitude": 2.3169387
    },
    {
      "profession_id": 2,
      "contract_type": "FULL_TIME",
      "name": "Business Developer / Inside Sales (H/F)",
      "latitude": 51.5104608,
      "longitude": -0.1318824
    },
    {
      "profession_id": 17,
      "contract_type": "FULL_TIME",
      "name": "Architecte DevOps H/F",
      "latitude": 48.8682471,
      "longitude": 2.3462831
    },
    {
      "profession_id": 2,
      "contract_type": "FULL_TIME",
      "name": "Senior Business Developer Grand Compte (H/F)",
      "latitude": 51.5104608,
      "longitude": -0.1318824
    },
    {
      "profession_id": 18,
      "contract_type": "FULL_TIME",
      "name": "Technical Support Specialist F/H",
      "latitude": 48.8722357,
      "longitude": 2.3276039
    },
    {
      "profession_id": 16,
      "contract_type": "FULL_TIME",
      "name": "Développeur H/F, 3 ans d’expérience minimum.",
      "latitude": 48.8777718,
      "longitude": 2.3337369
    },
    {
      "profession_id": 2,
      "contract_type": "INTERNSHIP",
      "name": "Stage Business Developer International",
      "latitude": 48.864306,
      "longitude": 2.3898209
    },
    {
      "profession_id": 15,
      "contract_type": "INTERNSHIP",
      "name": "Stage Développeur mobile iOS",
      "latitude": 48.8693441,
      "longitude": 2.3461078
    },
    {
      "profession_id": 40,
      "contract_type": "FULL_TIME",
      "name": "CTO France H/F",
      "latitude": 48.8682471,
      "longitude": 2.3462831
    },
    {
      "profession_id": 19,
      "contract_type": "FULL_TIME",
      "name": "Développeur Big Data / Scala H/F",
      "latitude": 48.8682471,
      "longitude": 2.3462831
    },
    {
      "profession_id": 31,
      "contract_type": "FULL_TIME",
      "name": "Directeur de site (H/F)",
      "latitude": 43.7101728,
      "longitude": 7.2619532
    },
    {
      "profession_id": 31,
      "contract_type": "FULL_TIME",
      "name": "Adjoint Directeur de site (H/F)",
      "latitude": 43.7101728,
      "longitude": 7.2619532
    },
    {
      "profession_id": 11,
      "contract_type": "INTERNSHIP",
      "name": "Stage support graphique UI/UX Design",
      "latitude": 48.8693441,
      "longitude": 2.3461078
    },
    {
      "profession_id": 3,
      "contract_type": "INTERNSHIP",
      "name": "CHARGE DE COMMUNICATION (H/F)",
      "latitude": 48.8772919,
      "longitude": 2.3415769
    },
    {
      "profession_id": 12,
      "contract_type": "FULL_TIME",
      "name": "Ingénieur Support & Qualité Logiciel F/H",
      "latitude": 48.8722357,
      "longitude": 2.3276039
    },
    {
      "profession_id": 4,
      "contract_type": "INTERNSHIP",
      "name": "Community Manager",
      "latitude": 48.8545413,
      "longitude": 2.3825196
    },
    {
      "profession_id": 13,
      "contract_type": "FULL_TIME",
      "name": "Ingénieur Production – H/F",
      "latitude": 48.8640493,
      "longitude": 2.3310526
    },
    {
      "profession_id": 2,
      "contract_type": "APPRENTICESHIP",
      "name": "Alternant Chef de projet digital / Product Owner digital H/F",
      "latitude": 48.8245306,
      "longitude": 2.2743419
    },
    {
      "profession_id": 2,
      "contract_type": "INTERNSHIP",
      "name": "Business developer",
      "latitude": 48.8638094,
      "longitude": 2.3785425
    },
    {
      "profession_id": 31,
      "contract_type": "FULL_TIME",
      "name": "Concierge (H/F)",
      "latitude": 43.7101728,
      "longitude": 7.2619532
    },
    {
      "profession_id": 8,
      "contract_type": "FULL_TIME",
      "name": "Head of Publisher Partnerships- AUNZ, SEA & India",
      "latitude": 1.352083,
      "longitude": 103.819836
    },
    {
      "profession_id": 2,
      "contract_type": "INTERNSHIP",
      "name": "Bras Droit / Startup Manager",
      "latitude": 45.7589388,
      "longitude": 4.8351078
    },
    {
      "profession_id": 12,
      "contract_type": "INTERNSHIP",
      "name": "Product Owner junior (stage)",
      "latitude": 48.8744698,
      "longitude": 2.3408831
    },
    {
      "profession_id": 13,
      "contract_type": "FULL_TIME",
      "name": "Développeur back Symfony 2",
      "latitude": 48.8689769,
      "longitude": 2.352871
    },
    {
      "profession_id": 7,
      "contract_type": "FULL_TIME",
      "name": "CRM Manager",
      "latitude": 48.8610723,
      "longitude": 2.3083927
    },